$GNRMC,151536.00,A,5213.19537,N,02100.57200,E,0.006,,150619,,,A*68
$GNVTG,,T,,M,0.006,N,0.011,K,A*3B
$GNRMC,151546.00,A,5213.19563,N,02100.57196,E,0.016,,150619,,,A*63
$GNVTG,,T,,M,0.016,N,0.029,K,A*31
$GNGNS,151546.00,5213.19563,N,02100.57196,E,AA,15,1.16,117.2,34.2,,*6A
$GNGSA,A,3,08,20,21,27,15,10,18,,,,,,1.78,1.16,1.35*13
$GNGSA,A,3,84,68,83,66,82,67,74,73,,,,,1.78,1.16,1.35*16
$GPGSV,3,1,12,07,00,295,,08,47,299,43,10,70,136,42,11,06,283,24*72
$GPGSV,3,2,12,15,15,039,29,18,18,267,30,20,57,074,47,21,30,084,42*70
$GPGSV,3,3,12,26,05,190,,27,80,234,51,30,04,322,,32,06,151,27*7C
$GLGSV,3,1,11,66,23,030,32,67,58,090,48,68,31,167,12,73,20,268,34*6F
$GLGSV,3,2,11,74,25,316,33,75,04,005,22,81,04,108,12,82,50,093,49*68
$GLGSV,3,3,11,83,67,330,31,84,13,296,22,,,,40*6A
$GNGLL,5213.19563,N,02100.57196,E,151546.00,A,A*77
$GNGST,151546.00,27,,,,2.3,0.76,2.6*7A
$GNZDA,151546.00,15,06,2019,00,00*72
$GNRMC,151547.00,A,5213.19556,N,02100.57191,E,0.035,,150619,,,A*62
$GNVTG,,T,,M,0.035,N,0.064,K,A*39
$GNGNS,151547.00,5213.19556,N,02100.57191,E,AA,14,1.11,117.0,34.2,,*6E
$GNGSA,A,3,08,20,21,27,15,10,18,,,,,,1.69,1.11,1.28*18
$GNGSA,A,3,84,83,66,82,67,74,73,,,,,,1.69,1.11,1.28*13
$GPGSV,3,1,12,07,00,295,,08,47,299,44,10,70,136,42,11,06,283,24*75
$GPGSV,3,2,12,15,15,039,28,18,18,267,30,20,57,074,47,21,30,084,42*71
$GPGSV,3,3,12,26,05,190,,27,80,234,51,30,04,322,,32,06,151,27*7C
$GLGSV,3,1,11,66,23,030,32,67,58,090,48,68,31,167,11,73,20,268,34*6C
$GLGSV,3,2,11,74,25,316,33,75,04,005,22,81,04,108,11,82,50,093,49*6B
$GLGSV,3,3,11,83,67,330,32,84,13,296,22,,,,40*69
$GNGLL,5213.19556,N,02100.57191,E,151547.00,A,A*77
$GNGST,151547.00,34,,,,2.3,0.76,2.6*79
$GNZDA,151547.00,15,06,2019,00,00*73
$GNRMC,151548.00,A,5213.19548,N,02100.57186,E,0.007,,150619,,,A*65
$GNVTG,,T,,M,0.007,N,0.013,K,A*38
$GNGNS,151548.00,5213.19548,N,02100.57186,E,AA,14,1.11,117.0,34.2,,*68
$GNGSA,A,3,08,20,21,27,15,10,18,,,,,,1.69,1.11,1.28*18
$GNGSA,A,3,84,83,66,82,67,74,73,,,,,,1.69,1.11,1.28*13
$GPGSV,3,1,12,07,00,295,,08,47,299,44,10,70,136,42,11,06,283,25*74
$GPGSV,3,2,12,15,15,039,28,18,18,267,30,20,57,074,47,21,30,084,43*70
$GPGSV,3,3,12,26,05,190,,27,80,234,51,30,04,322,,32,06,151,27*7C
$GLGSV,3,1,11,66,23,030,33,67,58,090,48,68,31,167,11,73,20,268,35*6C
$GLGSV,3,2,11,74,25,316,34,75,04,005,21,81,04,108,,82,50,093,49*6F
$GLGSV,3,3,11,83,67,330,31,84,13,296,21,,,,40*69
$GNGLL,5213.19548,N,02100.57186,E,151548.00,A,A*71
$GNGST,151548.00,33,,,,2.3,0.76,2.6*71
$GNZDA,151548.00,15,06,2019,00,00*7C
$GNRMC,151549.00,A,5213.19539,N,02100.57182,E,0.022,,150619,,,A*61
$GNVTG,,T,,M,0.022,N,0.040,K,A*39
$GNGNS,151549.00,5213.19539,N,02100.57182,E,AA,14,1.11,117.0,34.2,,*6B
$GNGSA,A,3,08,20,21,27,15,10,18,,,,,,1.69,1.11,1.28*18
$GNGSA,A,3,84,83,66,82,67,74,73,,,,,,1.69,1.11,1.28*13
$GPGSV,3,1,12,07,00,295,,08,47,299,44,10,70,136,42,11,06,283,25*74
$GPGSV,3,2,12,15,15,039,27,18,18,267,29,20,57,074,47,21,30,084,43*77
$GPGSV,3,3,12,26,05,190,,27,80,234,51,30,04,322,,32,06,151,26*7D
$GLGSV,3,1,11,66,23,030,33,67,58,090,48,68,31,167,11,73,20,268,34*6D
$GLGSV,3,2,11,74,25,316,35,75,04,005,21,81,04,108,,82,50,093,48*6F
$GLGSV,3,3,11,83,67,330,31,84,13,296,20,,,,40*68
$GNGLL,5213.19539,N,02100.57182,E,151549.00,A,A*72
$GNGST,151549.00,34,,,,2.2,0.76,2.6*76
$GNZDA,151549.00,15,06,2019,00,00*7D
$GNRMC,151550.00,A,5213.19528,N,02100.57178,E,0.016,,150619,,,A*6B
$GNVTG,,T,,M,0.016,N,0.030,K,A*39
$GNGNS,151550.00,5213.19528,N,02100.57178,E,AA,14,1.11,116.9,34.2,,*6E
$GNGSA,A,3,08,20,21,27,15,10,18,,,,,,1.69,1.11,1.28*18
$GNGSA,A,3,84,83,66,82,67,74,73,,,,,,1.69,1.11,1.28*13
$GPGSV,3,1,12,07,00,295,,08,47,299,44,10,70,136,42,11,06,283,25*74
$GPGSV,3,2,12,15,15,039,26,18,18,267,29,20,57,074,47,21,30,084,43*76
$GPGSV,3,3,12,26,05,190,,27,80,234,51,30,04,322,,32,06,151,27*7C
$GLGSV,3,1,11,66,23,030,33,67,58,090,48,68,31,167,12,73,20,268,34*6E
$GLGSV,3,2,11,74,25,316,34,75,04,005,20,81,04,108,,82,50,093,48*6F
$GLGSV,3,3,11,83,67,330,31,84,13,296,21,,,,39*67
$GNGLL,5213.19528,N,02100.57178,E,151550.00,A,A*7F
$GNGST,151550.00,33,,,,2.2,0.76,2.6*79
$GNZDA,151550.00,15,06,2019,00,00*75
$GNRMC,151551.00,A,5213.19517,N,02100.57175,E,0.013,,150619,,,A*6E
$GNVTG,,T,,M,0.013,N,0.025,K,A*38
$GNGNS,151551.00,5213.19517,N,02100.57175,E,AA,14,1.11,116.9,34.2,,*6E
$GNGSA,A,3,08,20,21,27,15,10,18,,,,,,1.69,1.11,1.28*18
$GNGSA,A,3,84,83,66,82,67,74,73,,,,,,1.69,1.11,1.28*13
$GPGSV,3,1,12,07,00,295,,08,47,299,44,10,70,136,41,11,06,283,24*76
$GPGSV,3,2,12,15,15,039,26,18,18,267,29,20,57,074,47,21,30,084,43*76
$GPGSV,3,3,12,26,05,190,,27,80,234,51,30,04,322,,32,07,151,26*7C
$GLGSV,3,1,11,66,23,030,32,67,58,090,48,68,31,167,16,73,20,268,34*6B
$GLGSV,3,2,11,74,25,316,35,75,04,005,20,81,04,108,,82,50,093,48*6E
$GLGSV,3,3,11,83,67,330,31,84,13,296,21,,,,39*67
$GNGLL,5213.19517,N,02100.57175,E,151551.00,A,A*7F
$GNGST,151551.00,33,,,,2.2,0.76,2.6*78
$GNZDA,151551.00,15,06,2019,00,00*74
$GNRMC,151552.00,A,5213.19507,N,02100.57172,E,0.027,,150619,,,A*6C
$GNVTG,,T,,M,0.027,N,0.050,K,A*3D
$GNGNS,151552.00,5213.19507,N,02100.57172,E,AA,14,1.11,116.9,34.2,,*6B
$GNGSA,A,3,08,20,21,27,15,10,18,,,,,,1.69,1.11,1.28*18
$GNGSA,A,3,84,83,66,82,67,74,73,,,,,,1.69,1.11,1.28*13
$GPGSV,3,1,12,07,00,295,,08,47,299,45,10,70,136,41,11,06,283,23*70
$GPGSV,3,2,12,15,15,039,26,18,18,267,28,20,57,074,47,21,30,084,43*77
$GPGSV,3,3,12,26,05,190,,27,80,234,51,30,04,322,,32,07,151,26*7C
$GLGSV,3,1,11,66,23,030,33,67,58,090,48,68,31,167,18,73,20,268,35*65
$GLGSV,3,2,11,74,25,316,35,75,04,005,20,81,04,108,,82,50,093,48*6E
$GLGSV,3,3,11,83,67,330,32,84,13,296,23,,,,39*66
$GNGLL,5213.19507,N,02100.57172,E,151552.00,A,A*7A
$GNGST,151552.00,34,,,,2.2,0.76,2.6*7C
$GNZDA,151552.00,15,06,2019,00,00*77
$GNRMC,151553.00,A,5213.19499,N,02100.57173,E,0.059,,150619,,,A*63
$GNVTG,,T,,M,0.059,N,0.109,K,A*39
$GNGNS,151553.00,5213.19499,N,02100.57173,E,AA,15,1.16,117.0,34.2,,*63
$GNGSA,A,3,08,20,21,27,15,10,18,,,,,,1.78,1.16,1.35*13
$GNGSA,A,3,84,68,83,66,82,67,74,73,,,,,1.78,1.16,1.35*16
$GPGSV,3,1,12,07,00,295,,08,47,299,45,10,70,136,41,11,06,283,22*71
$GPGSV,3,2,12,15,15,039,24,18,18,267,27,20,57,074,47,21,30,084,43*7A
$GPGSV,3,3,12,26,05,190,,27,80,234,51,30,04,322,,32,07,151,26*7C
$GLGSV,3,1,11,66,23,030,31,67,58,090,48,68,31,167,20,73,20,268,35*6C
$GLGSV,3,2,11,74,25,316,36,75,04,005,20,81,04,108,,82,50,093,48*6D
$GLGSV,3,3,11,83,67,330,32,84,13,296,23,,,,40*68
$GNGLL,5213.19499,N,02100.57173,E,151553.00,A,A*7C
$GNGST,151553.00,30,,,,2.2,0.76,2.6*79
$GNZDA,151553.00,15,06,2019,00,00*76
$GNRMC,151554.00,A,5213.19492,N,02100.57174,E,0.028,,150619,,,A*6E
$GNVTG,,T,,M,0.028,N,0.051,K,A*33
$GNGNS,151554.00,5213.19492,N,02100.57174,E,AA,15,1.16,117.0,34.2,,*68
$GNGSA,A,3,08,20,21,27,15,10,18,,,,,,1.78,1.16,1.35*13
$GNGSA,A,3,84,68,83,66,82,67,74,73,,,,,1.78,1.16,1.35*16
$GPGSV,3,1,12,07,00,295,,08,47,299,45,10,70,136,42,11,06,283,21*71
$GPGSV,3,2,12,15,15,039,22,18,18,267,27,20,57,074,46,21,30,084,43*7D
$GPGSV,3,3,12,26,05,190,,27,80,234,51,30,04,322,,32,07,151,26*7C
$GLGSV,3,1,11,66,23,030,31,67,58,090,48,68,31,167,21,73,20,268,35*6D
$GLGSV,3,2,11,74,25,316,36,75,04,005,21,81,04,108,,82,50,093,48*6C
$GLGSV,3,3,11,83,67,330,32,84,13,296,23,,,,39*66
$GNGLL,5213.19492,N,02100.57174,E,151554.00,A,A*77
$GNGST,151554.00,30,,,,2.2,0.76,2.6*7E
$GNZDA,151554.00,15,06,2019,00,00*71
$GNRMC,151555.00,A,5213.19484,N,02100.57175,E,0.040,,150619,,,A*67
$GNVTG,,T,,M,0.040,N,0.074,K,A*3A
$GNGNS,151555.00,5213.19484,N,02100.57175,E,AA,15,1.16,117.1,34.2,,*6E
$GNGSA,A,3,08,20,21,27,15,10,18,,,,,,1.78,1.16,1.35*13
$GNGSA,A,3,84,68,83,66,82,67,74,73,,,,,1.78,1.16,1.35*16
$GPGSV,3,1,12,07,00,295,,08,47,299,45,10,70,136,42,11,06,283,22*72
$GPGSV,3,2,12,15,15,039,20,18,18,267,26,20,57,074,46,21,30,084,43*7E
$GPGSV,3,3,12,26,05,190,,27,80,234,51,30,04,322,,32,07,151,25*7F
$GLGSV,3,1,11,66,23,030,31,67,58,090,49,68,31,167,23,73,20,268,36*6D
$GLGSV,3,2,11,74,25,316,36,75,04,005,21,81,04,108,,82,50,093,47*63
$GLGSV,3,3,11,83,67,330,32,84,13,296,22,,,,39*67
$GNGLL,5213.19484,N,02100.57175,E,151555.00,A,A*70
$GNGST,151555.00,31,,,,2.2,0.76,2.6*7E
$GNZDA,151555.00,15,06,2019,00,00*70
$GNRMC,151556.00,A,5213.19477,N,02100.57176,E,0.064,,150619,,,A*6D
$GNVTG,,T,,M,0.064,N,0.118,K,A*37
$GNGNS,151556.00,5213.19477,N,02100.57176,E,AA,15,1.16,117.2,34.2,,*61
$GNGSA,A,3,08,20,21,27,15,10,18,,,,,,1.78,1.16,1.35*13
$GNGSA,A,3,84,68,83,66,82,67,74,73,,,,,1.78,1.16,1.35*16
$GPGSV,3,1,12,07,00,295,,08,47,299,45,10,70,136,42,11,06,283,23*73
$GPGSV,3,2,12,15,15,039,20,18,18,267,25,20,57,074,46,21,30,084,43*7D
$GPGSV,3,3,12,26,05,190,,27,80,234,51,30,04,322,,32,07,151,25*7F
$GLGSV,3,1,11,66,23,030,30,67,59,089,49,68,31,167,24,73,20,268,36*62
$GLGSV,3,2,11,74,25,316,36,75,04,005,21,81,04,108,,82,50,093,47*63
$GLGSV,3,3,11,83,67,330,32,84,13,296,22,,,,39*67
$GNGLL,5213.19477,N,02100.57176,E,151556.00,A,A*7C
$GNGST,151556.00,32,,,,2.2,0.76,2.6*7E
$GNZDA,151556.00,15,06,2019,00,00*73
$GNRMC,151557.00,A,5213.19472,N,02100.57178,E,0.027,,150619,,,A*60
$GNVTG,,T,,M,0.027,N,0.049,K,A*35
$GNGNS,151557.00,5213.19472,N,02100.57178,E,AA,15,1.16,117.2,34.2,,*6B
$GNGSA,A,3,08,20,21,27,15,10,18,,,,,,1.78,1.16,1.35*13
$GNGSA,A,3,84,68,83,66,82,67,74,73,,,,,1.78,1.16,1.35*16
$GPGSV,3,1,12,07,00,295,,08,47,299,45,10,70,136,42,11,06,283,23*73
$GPGSV,3,2,12,15,15,039,21,18,18,267,25,20,57,074,46,21,30,084,43*7C
$GPGSV,3,3,12,26,05,190,,27,80,234,51,30,04,322,,32,07,151,25*7F
$GLGSV,3,1,11,66,23,030,29,67,59,089,49,68,32,167,25,73,20,268,36*68
$GLGSV,3,2,11,74,25,316,36,75,04,005,21,81,04,108,,82,50,093,47*63
$GLGSV,3,3,11,83,67,330,31,84,13,296,22,,,,39*64
$GNGLL,5213.19472,N,02100.57178,E,151557.00,A,A*76
$GNGST,151557.00,32,,,,2.2,0.76,2.6*7F
$GNZDA,151557.00,15,06,2019,00,00*72
$GNRMC,151558.00,A,5213.19472,N,02100.57180,E,0.034,,150619,,,A*6A
$GNVTG,,T,,M,0.034,N,0.063,K,A*3F
$GNGNS,151558.00,5213.19472,N,02100.57180,E,AA,15,0.87,117.4,34.2,,*6C
$GNGSA,A,3,08,20,21,27,15,10,18,,,,,,1.50,0.87,1.22*16
$GNGSA,A,3,84,68,83,66,82,67,74,73,,,,,1.50,0.87,1.22*13
$GPGSV,3,1,12,07,00,295,,08,47,299,45,10,70,136,42,11,06,283,24*74
$GPGSV,3,2,12,15,15,039,21,18,18,267,25,20,57,074,46,21,30,084,44*7B
$GPGSV,3,3,12,26,05,190,,27,80,234,51,30,04,322,,32,07,151,24*7E
$GLGSV,3,1,11,66,23,030,29,67,59,089,49,68,32,167,26,73,20,268,36*6B
$GLGSV,3,2,11,74,25,316,36,75,04,005,21,81,04,108,,82,50,093,47*63
$GLGSV,3,3,11,83,67,330,31,84,13,296,21,,,,39*67
$GNGLL,5213.19472,N,02100.57180,E,151558.00,A,A*7E
$GNGST,151558.00,36,,,,2.2,0.76,2.6*74
$GNZDA,151558.00,15,06,2019,00,00*7D
$GNRMC,151559.00,A,5213.19473,N,02100.57182,E,0.017,,150619,,,A*69
$GNVTG,,T,,M,0.017,N,0.032,K,A*3A
$GNGNS,151559.00,5213.19473,N,02100.57182,E,AA,15,0.87,117.6,34.2,,*6C
$GNGSA,A,3,08,20,21,27,15,10,18,,,,,,1.50,0.87,1.22*16
$GNGSA,A,3,84,68,83,66,82,67,74,73,,,,,1.50,0.87,1.22*13
$GPGSV,3,1,12,07,00,295,,08,47,299,45,10,70,136,42,11,06,283,25*75
$GPGSV,3,2,12,15,15,039,20,18,18,267,26,20,57,074,46,21,30,084,44*79
$GPGSV,3,3,12,26,05,190,,27,80,234,51,30,04,322,,32,07,151,24*7E
$GLGSV,3,1,11,66,23,030,29,67,59,089,49,68,32,167,27,73,20,268,36*6A
$GLGSV,3,2,11,74,25,316,36,75,04,005,22,81,04,108,,82,50,093,47*60
$GLGSV,3,3,11,83,67,330,31,84,13,296,22,,,,39*64
$GNGLL,5213.19473,N,02100.57182,E,151559.00,A,A*7C
$GNGST,151559.00,35,,,,2.2,0.76,2.6*76
$GNZDA,151559.00,15,06,2019,00,00*7C
$GNRMC,151600.00,A,5213.19474,N,02100.57185,E,0.008,,150619,,,A*68
$GNVTG,,T,,M,0.008,N,0.014,K,A*30
$GNGNS,151600.00,5213.19474,N,02100.57185,E,AA,15,0.87,117.8,34.2,,*6D
$GNGSA,A,3,08,20,21,27,15,10,18,,,,,,1.50,0.87,1.22*16
$GNGSA,A,3,84,68,83,66,82,67,74,73,,,,,1.50,0.87,1.22*13
$GPGSV,3,1,12,07,00,295,,08,47,299,45,10,70,136,42,11,06,283,26*76
$GPGSV,3,2,12,15,15,039,17,18,18,267,26,20,57,074,46,21,30,084,44*7D
$GPGSV,3,3,12,26,05,190,,27,80,234,51,30,04,322,,32,07,151,24*7E
$GLGSV,3,1,11,66,23,030,29,67,59,089,49,68,32,167,28,73,20,268,36*65
$GLGSV,3,2,11,74,25,316,36,75,04,005,23,81,04,108,,82,50,093,47*61
$GLGSV,3,3,11,83,67,330,31,84,13,296,23,,,,39*65
$GNGLL,5213.19474,N,02100.57185,E,151600.00,A,A*73
$GNGST,151600.00,35,,,,2.2,0.76,2.6*79
$GNZDA,151600.00,15,06,2019,00,00*73
$GNRMC,151601.00,A,5213.19474,N,02100.57187,E,0.003,,150619,,,A*60
$GNVTG,,T,,M,0.003,N,0.005,K,A*3B
$GNGNS,151601.00,5213.19474,N,02100.57187,E,AA,15,0.87,117.9,34.2,,*6F
$GNGSA,A,3,08,20,21,27,15,10,18,,,,,,1.50,0.87,1.22*16
$GNGSA,A,3,84,68,83,66,82,67,74,73,,,,,1.50,0.87,1.22*13
$GPGSV,3,1,12,07,00,295,,08,47,299,45,10,70,136,42,11,06,283,27*77
$GPGSV,3,2,12,15,15,039,16,18,18,267,25,20,57,074,46,21,30,084,43*78
$GPGSV,3,3,12,26,05,190,,27,80,234,51,30,04,322,,32,07,151,25*7F
$GLGSV,3,1,11,66,23,030,29,67,59,089,49,68,32,167,28,73,20,268,36*65
$GLGSV,3,2,11,74,25,316,36,75,04,005,23,81,04,108,,82,50,093,47*61
$GLGSV,3,3,11,83,67,330,31,84,13,296,23,,,,39*65
$GNGLL,5213.19474,N,02100.57187,E,151601.00,A,A*70
$GNGST,151601.00,35,,,,2.2,0.76,2.6*78
$GNZDA,151601.00,15,06,2019,00,00*72
$GNRMC,151602.00,A,5213.19477,N,02100.57190,E,0.012,,150619,,,A*66
$GNVTG,,T,,M,0.012,N,0.023,K,A*3F
$GNGNS,151602.00,5213.19477,N,02100.57190,E,AA,15,0.87,118.1,34.2,,*6E
$GNGSA,A,3,08,20,21,27,15,10,18,,,,,,1.50,0.87,1.22*16
$GNGSA,A,3,84,68,83,66,82,67,74,73,,,,,1.50,0.87,1.22*13
$GPGSV,3,1,12,07,00,295,,08,47,299,46,10,70,136,43,11,06,283,27*75
$GPGSV,3,2,12,15,15,039,15,18,18,267,26,20,57,074,46,21,30,084,43*78
$GPGSV,3,3,12,26,05,190,,27,80,234,51,30,04,322,,32,07,151,25*7F
$GLGSV,3,1,11,66,23,030,29,67,59,089,48,68,32,167,26,73,20,268,37*6B
$GLGSV,3,2,11,74,25,316,35,75,04,005,23,81,04,108,,82,50,093,46*63
$GLGSV,3,3,11,83,67,330,31,84,13,296,22,,,,39*64
$GNGLL,5213.19477,N,02100.57190,E,151602.00,A,A*76
$GNGST,151602.00,35,,,,2.2,0.77,2.6*7A
$GNZDA,151602.00,15,06,2019,00,00*71
$GNRMC,151603.00,A,5213.19479,N,02100.57193,E,0.008,,150619,,,A*61
$GNVTG,,T,,M,0.008,N,0.015,K,A*31
$GNGNS,151603.00,5213.19479,N,02100.57193,E,AA,15,0.87,118.3,34.2,,*60
$GNGSA,A,3,08,20,21,27,15,10,18,,,,,,1.50,0.87,1.22*16
$GNGSA,A,3,84,68,83,66,82,67,74,73,,,,,1.50,0.87,1.22*13
$GPGSV,3,1,12,07,00,295,,08,47,299,46,10,70,136,42,11,06,283,27*74
$GPGSV,3,2,12,15,15,039,18,18,18,267,26,20,57,074,46,21,30,084,43*75
$GPGSV,3,3,12,26,05,190,,27,80,234,51,30,04,322,,32,07,151,25*7F
$GLGSV,3,1,11,66,23,030,31,67,59,089,48,68,32,167,26,73,20,268,37*62
$GLGSV,3,2,11,74,25,315,34,75,04,005,22,81,04,108,,82,50,093,46*60
$GLGSV,3,3,11,83,67,330,30,84,13,296,21,,,,39*66
$GNGLL,5213.19479,N,02100.57193,E,151603.00,A,A*7A
$GNGST,151603.00,36,,,,2.2,0.77,2.6*78
$GNZDA,151603.00,15,06,2019,00,00*70
$GNRMC,151604.00,A,5213.19481,N,02100.57195,E,0.029,,150619,,,A*64
$GNVTG,,T,,M,0.029,N,0.053,K,A*30
$GNGNS,151604.00,5213.19481,N,02100.57195,E,AA,15,0.87,118.4,34.2,,*61
$GNGSA,A,3,08,20,21,27,15,10,18,,,,,,1.50,0.87,1.22*16
$GNGSA,A,3,84,68,83,66,82,67,74,73,,,,,1.50,0.87,1.22*13
$GPGSV,3,1,12,07,00,295,,08,47,299,46,10,70,136,43,11,06,283,27*75
$GPGSV,3,2,12,15,15,039,20,18,18,267,26,20,57,074,46,21,30,084,43*7E
$GPGSV,3,3,12,26,05,190,,27,80,234,51,30,04,322,,32,07,151,25*7F
$GLGSV,3,1,11,66,23,030,31,67,59,089,49,68,32,167,26,73,20,268,37*63
$GLGSV,3,2,11,74,25,315,36,75,04,005,22,81,04,108,,82,50,093,46*62
$GLGSV,3,3,11,83,67,330,30,84,13,296,21,,,,38*67
$GNGLL,5213.19481,N,02100.57195,E,151604.00,A,A*7C
$GNGST,151604.00,36,,,,2.2,0.77,2.6*7F
$GNZDA,151604.00,15,06,2019,00,00*77
$GNRMC,151605.00,A,5213.19487,N,02100.57199,E,0.016,,150619,,,A*63
$GNVTG,,T,,M,0.016,N,0.030,K,A*39
$GNGNS,151605.00,5213.19487,N,02100.57199,E,AA,15,0.87,118.6,34.2,,*68
$GNGSA,A,3,08,20,21,27,15,10,18,,,,,,1.50,0.87,1.22*16
$GNGSA,A,3,84,68,83,66,82,67,74,73,,,,,1.50,0.87,1.22*13
$GPGSV,3,1,12,07,00,295,,08,47,299,45,10,70,136,43,11,06,283,27*76
$GPGSV,3,2,12,15,15,039,23,18,18,267,27,20,57,074,46,21,30,084,43*7C
$GPGSV,3,3,12,26,05,190,,27,80,234,51,30,04,322,,32,07,151,25*7F
$GLGSV,3,1,11,66,23,030,32,67,59,089,48,68,32,167,26,73,20,268,37*61
$GLGSV,3,2,11,74,25,315,36,75,04,005,20,81,04,108,,82,50,093,47*61
$GLGSV,3,3,11,83,67,330,30,84,13,296,22,,,,38*64
$GNGLL,5213.19487,N,02100.57199,E,151605.00,A,A*77
$GNGST,151605.00,35,,,,2.2,0.77,2.6*7D
$GNZDA,151605.00,15,06,2019,00,00*76
$GNRMC,151606.00,A,5213.19491,N,02100.57201,E,0.040,,150619,,,A*66
$GNVTG,,T,,M,0.040,N,0.075,K,A*3B
$GNGNS,151606.00,5213.19491,N,02100.57201,E,AA,15,0.81,118.7,34.2,,*69
$GNGSA,A,3,08,20,21,27,15,10,18,,,,,,1.39,0.81,1.12*1C
$GNGSA,A,3,84,68,83,66,82,67,74,73,,,,,1.39,0.81,1.12*19
$GPGSV,3,1,12,07,00,295,,08,47,299,45,10,70,136,44,11,06,283,26*70
$GPGSV,3,2,12,15,15,039,26,18,18,267,28,20,57,074,46,21,30,084,43*76
$GPGSV,3,3,12,26,05,190,,27,80,234,52,30,04,322,,32,07,151,26*7F
$GLGSV,3,1,11,66,23,030,31,67,59,089,48,68,32,167,27,73,20,268,36*62
$GLGSV,3,2,11,74,25,315,34,75,04,005,18,81,04,108,,82,50,093,47*68
$GLGSV,3,3,11,83,67,330,29,84,13,296,21,,,,38*6F
$GNGLL,5213.19491,N,02100.57201,E,151606.00,A,A*71
$GNGST,151606.00,42,,,,2.2,0.77,2.6*7E
$GNZDA,151606.00,15,06,2019,00,00*75
$GNRMC,151607.00,A,5213.19495,N,02100.57202,E,0.045,,150619,,,A*65
$GNVTG,,T,,M,0.045,N,0.084,K,A*30
$GNGNS,151607.00,5213.19495,N,02100.57202,E,AA,15,0.81,118.8,34.2,,*60
$GNGSA,A,3,08,20,21,27,15,10,18,,,,,,1.39,0.81,1.12*1C
$GNGSA,A,3,84,68,83,66,82,67,74,73,,,,,1.39,0.81,1.12*19
$GPGSV,3,1,12,07,00,295,,08,47,299,45,10,70,136,44,11,06,283,25*73
$GPGSV,3,2,12,15,15,039,27,18,18,267,27,20,57,074,46,21,30,084,43*78
$GPGSV,3,3,12,26,05,190,,27,80,234,52,30,04,322,,32,07,151,25*7C
$GLGSV,3,1,11,66,23,030,31,67,59,089,49,68,32,167,27,73,20,268,35*60
$GLGSV,3,2,11,74,25,315,34,75,04,005,17,81,04,108,,82,50,093,46*66
$GLGSV,3,3,11,83,67,330,29,84,13,296,21,,,,38*6F
$GNGLL,5213.19495,N,02100.57202,E,151607.00,A,A*77
$GNGST,151607.00,42,,,,2.2,0.77,2.6*7F
$GNZDA,151607.00,15,06,2019,00,00*74
$GNRMC,151608.00,A,5213.19499,N,02100.57204,E,0.008,,150619,,,A*69
$GNVTG,,T,,M,0.008,N,0.014,K,A*30
$GNGNS,151608.00,5213.19499,N,02100.57204,E,AA,15,0.81,118.9,34.2,,*64
$GNGSA,A,3,08,20,21,27,15,10,18,,,,,,1.39,0.81,1.12*1C
$GNGSA,A,3,84,68,83,66,82,67,74,73,,,,,1.39,0.81,1.12*19
$GPGSV,3,1,12,07,00,295,,08,47,299,45,10,70,136,44,11,06,283,24*72
$GPGSV,3,2,12,15,15,039,27,18,18,267,27,20,57,074,45,21,30,084,43*7B
$GPGSV,3,3,12,26,05,190,,27,80,234,52,30,04,322,,32,07,151,26*7F
$GLGSV,3,1,11,66,23,030,29,67,59,089,49,68,32,167,27,73,20,268,34*68
$GNRMC,151609.00,A,5213.19506,N,02100.57204,E,0.016,,150619,,,A*60
$GNVTG,,T,,M,0.016,N,0.030,K,A*39
$GNGNS,151609.00,5213.19506,N,02100.57204,E,AA,15,0.81,118.9,34.2,,*62
$GNGSA,A,3,08,20,21,27,15,10,18,,,,,,1.39,0.81,1.12*1C
$GNGSA,A,3,84,68,83,66,82,67,74,73,,,,,1.39,0.81,1.12*19
$GPGSV,3,1,12,07,00,295,,08,47,299,44,10,70,136,44,11,06,283,25*72
$GPGSV,3,2,12,15,15,039,28,18,18,267,27,20,57,074,46,21,30,084,43*77
$GPGSV,3,3,12,26,05,190,,27,80,234,52,30,04,322,,32,07,151,25*7C
$GLGSV,3,1,10,66,23,030,28,67,59,089,49,68,32,167,27,73,20,268,34*68
$GLGSV,3,2,10,74,25,315,36,75,04,005,22,81,04,108,,82,50,093,47*62
$GLGSV,3,3,10,83,67,330,28,84,13,296,23*66
$GNGLL,5213.19506,N,02100.57204,E,151609.00,A,A*74
$GNGST,151609.00,42,,,,2.2,0.77,2.6*71
$GNZDA,151609.00,15,06,2019,00,00*7A
$GNRMC,151610.00,A,5213.19515,N,02100.57205,E,0.014,,150619,,,A*69
$GNVTG,,T,,M,0.014,N,0.025,K,A*3F
$GNGNS,151610.00,5213.19515,N,02100.57205,E,AA,15,0.81,119.0,34.2,,*61
$GNGSA,A,3,08,20,21,27,15,10,18,,,,,,1.39,0.81,1.12*1C
$GNGSA,A,3,84,68,83,66,82,67,74,73,,,,,1.39,0.81,1.12*19
$GPGSV,3,1,12,07,00,295,,08,47,299,44,10,70,136,44,11,06,283,25*72
$GPGSV,3,2,12,15,15,039,28,18,18,267,27,20,57,074,46,21,30,084,42*76
$GPGSV,3,3,12,26,05,190,,27,80,234,52,30,04,322,,32,07,151,25*7C
$GLGSV,3,1,10,66,23,030,29,67,59,089,48,68,32,167,28,73,20,268,34*67
$GLGSV,3,2,10,74,25,315,36,75,04,005,22,81,03,108,,82,50,093,47*65
$GLGSV,3,3,10,83,67,330,28,84,13,296,23*66
$GNGLL,5213.19515,N,02100.57205,E,151610.00,A,A*7F
$GNGST,151610.00,42,,,,2.2,0.77,2.6*79
$GNZDA,151610.00,15,06,2019,00,00*72
$GNRMC,151611.00,A,5213.19521,N,02100.57204,E,0.010,,150619,,,A*6A
$GNVTG,,T,,M,0.010,N,0.018,K,A*35
$GNGNS,151611.00,5213.19521,N,02100.57204,E,AA,15,0.81,119.1,34.2,,*67
$GNGSA,A,3,08,20,21,27,15,10,18,,,,,,1.39,0.81,1.12*1C
$GNGSA,A,3,84,68,83,66,82,67,74,73,,,,,1.39,0.81,1.12*19
$GPGSV,3,1,12,07,00,295,,08,47,299,44,10,70,136,44,11,06,283,25*72
$GPGSV,3,2,12,15,15,039,30,18,18,267,26,20,57,074,46,21,30,084,42*7E
$GPGSV,3,3,12,26,05,190,,27,80,234,52,30,04,322,,32,07,151,25*7C
$GLGSV,3,1,10,66,23,030,29,67,59,089,48,68,32,167,27,73,20,268,34*68
$GLGSV,3,2,10,74,25,315,37,75,04,005,23,81,03,108,,82,50,093,47*65
$GLGSV,3,3,10,83,67,330,28,84,13,296,25*60
$GNGLL,5213.19521,N,02100.57204,E,151611.00,A,A*78
$GNGST,151611.00,39,,,,2.2,0.77,2.6*74
$GNZDA,151611.00,15,06,2019,00,00*73
$GNRMC,151612.00,A,5213.19526,N,02100.57202,E,0.013,,150619,,,A*6B
$GNVTG,,T,,M,0.013,N,0.024,K,A*39
$GNGNS,151612.00,5213.19526,N,02100.57202,E,AA,15,0.81,119.1,34.2,,*65
$GNGSA,A,3,08,20,21,27,15,10,18,,,,,,1.39,0.81,1.12*1C
$GNGSA,A,3,84,68,83,66,82,67,74,73,,,,,1.39,0.81,1.12*19
$GPGSV,3,1,12,07,00,295,,08,47,299,44,10,70,136,44,11,06,283,25*72
$GPGSV,3,2,12,15,15,039,30,18,18,267,26,20,57,074,45,21,30,084,42*7D
$GPGSV,3,3,12,26,05,190,,27,80,234,52,30,04,322,,32,07,151,25*7C
$GLGSV,3,1,10,66,23,030,28,67,59,089,48,68,32,167,26,73,20,268,33*6F
$GLGSV,3,2,10,74,25,315,37,75,04,005,22,81,03,108,,82,50,093,47*64
$GLGSV,3,3,10,83,67,330,28,84,13,296,26*63
$GNGLL,5213.19526,N,02100.57202,E,151612.00,A,A*7A
$GNGST,151612.00,40,,,,2.2,0.77,2.6*79
$GNZDA,151612.00,15,06,2019,00,00*70
$GNRMC,151613.00,A,5213.19532,N,02100.57199,E,0.062,,150619,,,A*68
$GNVTG,,T,,M,0.062,N,0.114,K,A*3D
$GNGNS,151613.00,5213.19532,N,02100.57199,E,AA,15,0.81,119.0,34.2,,*61
$GNGSA,A,3,08,20,21,27,15,10,18,,,,,,1.39,0.81,1.12*1C
$GNGSA,A,3,84,68,83,66,82,67,74,73,,,,,1.39,0.81,1.12*19
$GPGSV,4,1,13,07,00,295,,08,47,299,43,10,70,136,44,11,06,283,*74
$GPGSV,4,2,13,13,02,011,,15,15,039,31,18,18,267,26,20,57,074,46*73
$GPGSV,4,3,13,21,30,084,44,26,05,190,,27,80,234,52,30,04,322,*72
$GPGSV,4,4,13,32,07,151,24*4E
$GLGSV,3,1,10,66,23,030,28,67,59,089,48,68,32,167,26,73,20,268,34*68
$GLGSV,3,2,10,74,25,315,38,75,04,005,23,81,03,108,,82,50,093,47*6A
$GLGSV,3,3,10,83,67,330,28,84,13,297,26*62
$GNGLL,5213.19532,N,02100.57199,E,151613.00,A,A*7F
$GNGST,151613.00,39,,,,2.2,0.77,2.6*76
$GNZDA,151613.00,15,06,2019,00,00*71
$GNRMC,151614.00,A,5213.19539,N,02100.57197,E,0.005,,150619,,,A*6B
$GNVTG,,T,,M,0.005,N,0.009,K,A*31
$GNGNS,151614.00,5213.19539,N,02100.57197,E,AA,14,0.85,119.1,34.2,,*67
$GNGSA,A,3,08,20,21,27,15,10,,,,,,,1.44,0.85,1.16*1F
$GNGSA,A,3,84,68,83,66,82,67,74,73,,,,,1.44,0.85,1.16*13
$GPGSV,4,1,13,07,00,295,,08,47,299,43,10,70,136,44,11,06,283,*74
$GPGSV,4,2,13,13,02,011,,15,15,039,31,18,18,267,,20,57,074,46*77
$GPGSV,4,3,13,21,30,084,43,26,05,190,,27,80,234,52,30,04,322,*75
$GPGSV,4,4,13,32,07,151,24*4E
$GLGSV,3,1,10,66,23,030,27,67,59,089,48,68,32,167,25,73,20,268,35*65
$GLGSV,3,2,10,74,25,315,38,75,04,005,23,81,03,108,,82,50,093,47*6A
$GLGSV,3,3,10,83,67,330,28,84,13,297,26*62
$GNGLL,5213.19539,N,02100.57197,E,151614.00,A,A*7D
$GNGST,151614.00,37,,,,2.2,0.77,2.6*7F
$GNZDA,151614.00,15,06,2019,00,00*76
$GNRMC,151615.00,A,5213.19544,N,02100.57195,E,0.018,,150619,,,A*6E
$GNVTG,,T,,M,0.018,N,0.033,K,A*34
$GNGNS,151615.00,5213.19544,N,02100.57195,E,AA,14,1.21,119.1,34.2,,*61
$GNGSA,A,3,08,20,21,27,15,10,,,,,,,1.85,1.21,1.40*1E
$GNGSA,A,3,84,68,83,66,82,67,74,73,,,,,1.85,1.21,1.40*12
$GPGSV,4,1,14,07,00,295,,08,47,299,42,10,70,136,44,11,06,283,*72
$GPGSV,4,2,14,12,,,33,13,02,011,,15,15,039,31,18,18,267,*42
$GPGSV,4,3,14,20,57,074,46,21,30,084,43,26,05,190,,27,80,234,52*77
$GPGSV,4,4,14,30,04,322,,32,07,151,23*7A
$GLGSV,3,1,10,66,23,030,28,67,59,089,48,68,32,167,25,73,20,268,34*6B
$GLGSV,3,2,10,74,25,315,38,75,04,005,23,81,03,108,,82,50,093,47*6A
$GLGSV,3,3,10,83,67,330,28,84,13,297,25*61
$GNGLL,5213.19544,N,02100.57195,E,151615.00,A,A*74
$GNGST,151615.00,33,,,,2.2,0.77,2.6*7A
$GNZDA,151615.00,15,06,2019,00,00*77
$GNRMC,151616.00,A,5213.19549,N,02100.57193,E,0.025,,150619,,,A*68
$GNVTG,,T,,M,0.025,N,0.046,K,A*38
$GNGNS,151616.00,5213.19549,N,02100.57193,E,AA,14,1.21,119.1,34.2,,*69
$GNGSA,A,3,08,20,21,27,15,10,,,,,,,1.85,1.21,1.40*1E
$GNGSA,A,3,84,68,83,66,82,67,74,73,,,,,1.85,1.21,1.40*12
$GPGSV,4,1,13,07,00,295,,08,47,299,42,10,70,136,44,11,06,283,*75
$GPGSV,4,2,13,13,02,011,,15,15,039,32,18,18,267,27,20,57,074,46*71
$GPGSV,4,3,13,21,30,084,43,26,05,190,,27,80,234,52,30,04,322,*75
$GPGSV,4,4,13,32,07,151,22*48
$GLGSV,3,1,10,66,23,030,27,67,59,089,48,68,32,167,26,73,20,268,36*65
$GLGSV,3,2,10,74,25,315,39,75,04,005,24,81,03,108,,82,50,093,47*6C
$GLGSV,3,3,10,83,67,330,28,84,13,297,25*61
$GNGLL,5213.19549,N,02100.57193,E,151616.00,A,A*7C
$GNGST,151616.00,33,,,,2.2,0.77,2.6*79
$GNZDA,151616.00,15,06,2019,00,00*74
$GNRMC,151617.00,A,5213.19554,N,02100.57190,E,0.017,,150619,,,A*67
$GNVTG,,T,,M,0.017,N,0.031,K,A*39
$GNGNS,151617.00,5213.19554,N,02100.57190,E,AA,14,1.21,119.2,34.2,,*64
$GNGSA,A,3,08,20,21,27,15,10,,,,,,,1.85,1.21,1.40*1E
$GNGSA,A,3,84,68,83,66,82,67,74,73,,,,,1.85,1.21,1.40*12
$GPGSV,4,1,13,07,00,295,,08,47,299,42,10,70,136,45,11,06,283,*74
$GPGSV,4,2,13,13,02,011,,15,15,039,31,18,18,267,,20,57,074,46*77
$GPGSV,4,3,13,21,30,084,43,26,05,190,,27,80,234,52,30,04,322,*75
$GPGSV,4,4,13,32,07,151,22*48
$GLGSV,3,1,10,66,23,030,27,67,59,089,48,68,32,167,25,73,20,268,35*65
$GLGSV,3,2,10,74,25,315,39,75,04,005,24,81,03,108,,82,50,093,47*6C
$GLGSV,3,3,10,83,67,330,28,84,13,297,26*62
$GNGLL,5213.19554,N,02100.57190,E,151617.00,A,A*72
$GNGST,151617.00,33,,,,2.2,0.77,2.6*78
$GNZDA,151617.00,15,06,2019,00,00*75
$GNRMC,151618.00,A,5213.19560,N,02100.57186,E,0.014,,150619,,,A*6B
$GNVTG,,T,,M,0.014,N,0.025,K,A*3F
$GNGNS,151618.00,5213.19560,N,02100.57186,E,AA,14,1.21,119.2,34.2,,*6B
$GNGSA,A,3,08,20,21,27,15,10,,,,,,,1.85,1.21,1.40*1E
$GNGSA,A,3,84,68,83,66,82,67,74,73,,,,,1.85,1.21,1.40*12
$GPGSV,4,1,13,07,00,295,,08,47,299,42,10,70,136,45,11,06,283,*74
$GPGSV,4,2,13,13,02,011,,15,15,039,31,18,18,267,,20,57,074,46*77
$GPGSV,4,3,13,21,30,084,43,26,05,190,,27,80,234,52,30,04,322,*75
$GPGSV,4,4,13,32,07,151,22*48
$GLGSV,3,1,10,66,23,030,28,67,59,089,48,68,32,167,25,73,20,268,34*6B
$GLGSV,3,2,10,74,25,315,39,75,04,005,23,81,03,108,,82,50,093,47*6B
$GLGSV,3,3,10,83,67,330,28,84,13,297,26*62
$GNGLL,5213.19560,N,02100.57186,E,151618.00,A,A*7D
$GNGST,151618.00,33,,,,2.2,0.78,2.6*78
$GNZDA,151618.00,15,06,2019,00,00*7A
$GNRMC,151619.00,A,5213.19564,N,02100.57183,E,0.013,,150619,,,A*6C
$GNVTG,,T,,M,0.013,N,0.024,K,A*39
$GNGNS,151619.00,5213.19564,N,02100.57183,E,AA,14,1.21,119.2,34.2,,*6B
$GNGSA,A,3,08,20,21,27,15,10,,,,,,,1.85,1.21,1.40*1E
$GNGSA,A,3,84,68,83,66,82,67,74,73,,,,,1.85,1.21,1.40*12
$GPGSV,4,1,13,07,00,295,,08,47,299,43,10,70,136,45,11,06,283,*75
$GPGSV,4,2,13,13,02,011,,15,15,039,31,18,18,267,,20,57,074,46*77
$GPGSV,4,3,13,21,30,084,43,26,05,190,,27,80,234,52,30,04,322,*75
$GPGSV,4,4,13,32,07,151,21*4B
$GLGSV,3,1,10,66,23,030,28,67,59,089,48,68,32,167,25,73,20,268,34*6B
$GLGSV,3,2,10,74,25,315,40,75,04,005,23,81,03,108,,82,50,093,47*65
$GLGSV,3,3,10,83,67,330,28,84,13,297,26*62
$GNGLL,5213.19564,N,02100.57183,E,151619.00,A,A*7D
$GNGST,151619.00,33,,,,2.2,0.78,2.6*79
$GNZDA,151619.00,15,06,2019,00,00*7B
$GNRMC,151620.00,A,5213.19566,N,02100.57179,E,0.028,,150619,,,A*69
$GNVTG,,T,,M,0.028,N,0.053,K,A*31
$GNGNS,151620.00,5213.19566,N,02100.57179,E,AA,14,1.21,119.1,34.2,,*65
$GNGSA,A,3,08,20,21,27,15,10,,,,,,,1.85,1.21,1.40*1E
$GNGSA,A,3,84,68,83,66,82,67,74,73,,,,,1.85,1.21,1.40*12
$GPGSV,4,1,13,07,00,295,,08,47,299,43,10,70,136,45,11,06,283,*75
$GPGSV,4,2,13,13,02,011,,15,15,039,30,18,18,267,,20,57,074,45*75
$GPGSV,4,3,13,21,30,084,42,26,05,190,,27,80,234,52,30,04,322,*74
$GPGSV,4,4,13,32,07,151,20*4A
$GLGSV,3,1,10,66,23,030,29,67,59,089,48,68,32,167,24,73,20,268,33*6C
$GLGSV,3,2,10,74,25,315,39,75,04,005,23,81,03,108,,82,50,093,48*64
$GLGSV,3,3,10,83,67,330,27,84,13,297,26*6D
$GNGLL,5213.19566,N,02100.57179,E,151620.00,A,A*70
$GNGST,151620.00,34,,,,2.3,0.78,2.7*74
$GNZDA,151620.00,15,06,2019,00,00*71
$GNRMC,151621.00,A,5213.19569,N,02100.57176,E,0.024,,150619,,,A*64
$GNVTG,,T,,M,0.024,N,0.045,K,A*3A
$GNGNS,151621.00,5213.19569,N,02100.57176,E,AA,14,1.21,119.1,34.2,,*64
$GNGSA,A,3,08,20,21,27,15,10,,,,,,,1.85,1.21,1.40*1E
$GNGSA,A,3,84,68,83,66,82,67,74,73,,,,,1.85,1.21,1.40*12
$GPGSV,4,1,13,07,00,295,,08,47,299,43,10,70,136,45,11,06,283,*75
$GPGSV,4,2,13,13,02,011,,15,15,039,29,18,18,267,,20,57,074,45*7D
$GPGSV,4,3,13,21,30,084,43,26,05,190,,27,80,234,52,30,04,322,*75
$GPGSV,4,4,13,32,07,151,20*4A
$GLGSV,3,1,10,66,23,030,28,67,59,089,48,68,32,167,22,73,20,268,33*6B
$GLGSV,3,2,10,74,25,315,40,75,04,005,24,81,03,108,,82,50,093,47*62
$GLGSV,3,3,10,83,67,330,27,84,13,297,26*6D
$GNGLL,5213.19569,N,02100.57176,E,151621.00,A,A*71
$GNGST,151621.00,36,,,,2.3,0.78,2.7*77
$GNZDA,151621.00,15,06,2019,00,00*70
$GNRMC,151622.00,A,5213.19572,N,02100.57173,E,0.024,,150619,,,A*68
$GNVTG,,T,,M,0.024,N,0.044,K,A*3B
$GNGNS,151622.00,5213.19572,N,02100.57173,E,AA,14,1.21,119.1,34.2,,*68
$GNGSA,A,3,08,20,21,27,15,10,,,,,,,1.85,1.21,1.40*1E
$GNGSA,A,3,84,68,83,66,82,67,74,73,,,,,1.85,1.21,1.40*12
$GPGSV,4,1,13,07,00,294,,08,47,299,43,10,70,136,44,11,06,283,*75
$GPGSV,4,2,13,13,02,011,,15,15,039,30,18,18,267,,20,57,074,45*75
$GPGSV,4,3,13,21,30,084,43,26,05,190,,27,80,234,52,30,04,322,*75
$GPGSV,4,4,13,32,07,151,21*4B
$GLGSV,3,1,10,66,23,030,28,67,59,089,48,68,32,167,21,73,20,268,34*6F
$GLGSV,3,2,10,74,25,315,39,75,04,005,22,81,03,108,,82,50,093,48*65
$GLGSV,3,3,10,83,67,330,27,84,13,297,26*6D
$GNGLL,5213.19572,N,02100.57173,E,151622.00,A,A*7D
$GNGST,151622.00,34,,,,2.3,0.78,2.7*76
$GNZDA,151622.00,15,06,2019,00,00*73
$GNRMC,151623.00,A,5213.19575,N,02100.57172,E,0.055,,150619,,,A*69
$GNVTG,,T,,M,0.055,N,0.102,K,A*3E
$GNGNS,151623.00,5213.19575,N,02100.57172,E,AA,14,1.21,119.1,34.2,,*6F
$GNGSA,A,3,08,20,21,27,15,10,,,,,,,1.85,1.21,1.40*1E
$GNGSA,A,3,84,68,83,66,82,67,74,73,,,,,1.85,1.21,1.40*12
$GPGSV,4,1,13,07,00,294,,08,47,299,43,10,70,136,44,11,06,283,*75
$GPGSV,4,2,13,13,02,011,,15,15,039,29,18,18,267,,20,57,074,45*7D
$GPGSV,4,3,13,21,30,084,43,26,05,190,,27,80,234,52,30,04,322,*75
$GPGSV,4,4,13,32,07,151,21*4B
$GLGSV,3,1,11,66,23,030,27,67,59,089,48,68,32,167,20,73,20,268,33*67
$GLGSV,3,2,11,74,25,315,39,75,04,005,21,81,03,108,,82,50,093,48*67
$GLGSV,3,3,11,83,67,330,27,84,13,297,27,,,,38*66
$GNGLL,5213.19575,N,02100.57172,E,151623.00,A,A*7A
$GNGST,151623.00,36,,,,2.3,0.78,2.7*75
$GNZDA,151623.00,15,06,2019,00,00*72
$GNRMC,151624.00,A,5213.19578,N,02100.57172,E,0.070,,150619,,,A*64
$GNVTG,,T,,M,0.070,N,0.129,K,A*30
$GNGNS,151624.00,5213.19578,N,02100.57172,E,AA,14,1.21,119.1,34.2,,*65
$GNGSA,A,3,08,20,21,27,15,10,,,,,,,1.85,1.21,1.40*1E
$GNGSA,A,3,84,68,83,66,82,67,74,73,,,,,1.85,1.21,1.40*12
$GPGSV,4,1,13,07,00,294,,08,47,299,43,10,70,136,44,11,06,283,*75
$GPGSV,4,2,13,13,02,011,,15,15,039,29,18,18,267,,20,57,074,45*7D
$GPGSV,4,3,13,21,30,084,43,26,05,190,,27,80,234,52,30,04,322,*75
$GPGSV,4,4,13,32,07,151,22*48
$GLGSV,3,1,11,66,23,030,26,67,59,089,48,68,32,167,21,73,20,268,34*60
$GLGSV,3,2,11,74,25,315,39,75,04,005,19,81,03,108,,82,50,093,48*6C
$GLGSV,3,3,11,83,67,330,27,84,13,297,27,,,,36*68
$GNGLL,5213.19578,N,02100.57172,E,151624.00,A,A*70
$GNGST,151624.00,37,,,,2.3,0.79,2.7*72
$GNZDA,151624.00,15,06,2019,00,00*75
$GNRMC,151625.00,A,5213.19581,N,02100.57172,E,0.064,,150619,,,A*66
$GNVTG,,T,,M,0.064,N,0.119,K,A*36
$GNGNS,151625.00,5213.19581,N,02100.57172,E,AA,14,1.21,119.2,34.2,,*61
$GNGSA,A,3,08,20,21,27,15,10,,,,,,,1.85,1.21,1.40*1E
$GNGSA,A,3,84,68,83,66,82,67,74,73,,,,,1.85,1.21,1.40*12
$GPGSV,4,1,13,07,00,294,,08,47,299,43,10,70,135,44,11,06,283,*76
$GPGSV,4,2,13,13,02,011,,15,15,039,29,18,18,267,,20,57,074,45*7D
$GPGSV,4,3,13,21,30,084,43,26,05,190,,27,80,234,52,30,04,322,*75
$GPGSV,4,4,13,32,07,151,22*48
$GLGSV,3,1,11,66,23,030,26,67,59,089,48,68,32,167,20,73,20,268,33*66
$GLGSV,3,2,11,74,25,315,40,75,04,005,18,81,03,108,,82,50,093,48*63
$GLGSV,3,3,11,83,67,330,27,84,13,297,27,,,,37*69
$GNGLL,5213.19581,N,02100.57172,E,151625.00,A,A*77
$GNGST,151625.00,37,,,,2.3,0.79,2.7*73
$GNZDA,151625.00,15,06,2019,00,00*74
$GNRMC,151626.00,A,5213.19583,N,02100.57170,E,0.097,,150619,,,A*69
$GNVTG,,T,,M,0.097,N,0.181,K,A*3B
$GNGNS,151626.00,5213.19583,N,02100.57170,E,AA,14,1.21,119.2,34.2,,*62
$GNGSA,A,3,08,20,21,27,15,10,,,,,,,1.85,1.21,1.40*1E
$GNGSA,A,3,84,68,83,66,82,67,74,73,,,,,1.85,1.21,1.40*12
$GPGSV,4,1,13,07,00,294,,08,47,299,43,10,70,135,44,11,06,284,*71
$GPGSV,4,2,13,13,02,011,,15,15,039,28,18,18,267,,20,57,074,46*7F
$GPGSV,4,3,13,21,30,084,43,26,05,190,,27,80,234,52,30,04,322,*75
$GPGSV,4,4,13,32,07,151,22*48
$GLGSV,3,1,11,66,23,030,27,67,59,089,48,68,32,167,21,73,20,268,33*66
$GLGSV,3,2,11,74,25,315,40,75,04,005,18,81,03,108,,82,50,093,48*63
$GLGSV,3,3,11,83,67,330,27,84,13,297,27,,,,36*68
$GNGLL,5213.19583,N,02100.57170,E,151626.00,A,A*74
$GNGST,151626.00,37,,,,2.3,0.79,2.7*70
$GNZDA,151626.00,15,06,2019,00,00*77
$GNRMC,151627.00,A,5213.19586,N,02100.57168,E,0.049,,150619,,,A*67
$GNVTG,,T,,M,0.049,N,0.091,K,A*38
$GNGNS,151627.00,5213.19586,N,02100.57168,E,AA,14,1.21,119.2,34.2,,*6F
$GNGSA,A,3,08,20,21,27,15,10,,,,,,,1.85,1.21,1.40*1E
$GNGSA,A,3,84,68,83,66,82,67,74,73,,,,,1.85,1.21,1.40*12
$GPGSV,4,1,13,07,00,294,,08,47,299,43,10,70,135,44,11,06,284,*71
$GPGSV,4,2,13,13,02,011,,15,15,039,29,18,18,267,,20,57,074,46*7E
$GPGSV,4,3,13,21,30,084,43,26,05,190,,27,80,234,52,30,04,322,*75
$GPGSV,4,4,13,32,07,151,23*49
$GLGSV,3,1,11,66,23,030,28,67,59,089,48,68,32,167,21,73,20,268,33*69
$GLGSV,3,2,11,74,25,315,40,75,04,005,18,81,03,108,,82,50,093,48*63
$GLGSV,3,3,11,83,67,330,27,84,13,297,26,,,,36*69
$GNGLL,5213.19586,N,02100.57168,E,151627.00,A,A*79
$GNGST,151627.00,36,,,,2.3,0.79,2.7*70
$GNZDA,151627.00,15,06,2019,00,00*76
$GNRMC,151628.00,A,5213.19590,N,02100.57165,E,0.035,,150619,,,A*69
$GNVTG,,T,,M,0.035,N,0.065,K,A*38
$GNGNS,151628.00,5213.19590,N,02100.57165,E,AA,14,1.21,119.2,34.2,,*6A
$GNGSA,A,3,08,20,21,27,15,10,,,,,,,1.85,1.21,1.40*1E
$GNGSA,A,3,84,68,83,66,82,67,74,73,,,,,1.85,1.21,1.40*12
$GPGSV,4,1,13,07,00,294,,08,47,299,42,10,70,135,44,11,06,284,*70
$GPGSV,4,2,13,13,01,011,,15,15,039,29,18,18,267,,20,57,074,46*7D
$GPGSV,4,3,13,21,30,084,43,26,05,190,,27,80,234,52,30,04,322,*75
$GPGSV,4,4,13,32,07,151,23*49
$GLGSV,3,1,11,66,23,030,28,67,59,089,48,68,32,167,21,73,20,268,33*69
$GLGSV,3,2,11,74,25,315,40,75,04,005,18,81,03,108,,82,50,093,48*63
$GLGSV,3,3,11,83,67,330,27,84,13,297,25,,,,36*6A
$GNGLL,5213.19590,N,02100.57165,E,151628.00,A,A*7C
$GNGST,151628.00,37,,,,2.4,0.79,2.7*79
$GNZDA,151628.00,15,06,2019,00,00*79
$GNRMC,151629.00,A,5213.19592,N,02100.57162,E,0.012,,150619,,,A*68
$GNVTG,,T,,M,0.012,N,0.021,K,A*3D
$GNGNS,151629.00,5213.19592,N,02100.57162,E,AA,14,1.21,119.2,34.2,,*6E
$GNGSA,A,3,08,20,21,27,15,10,,,,,,,1.85,1.21,1.40*1E
$GNGSA,A,3,84,68,83,66,82,67,74,73,,,,,1.85,1.21,1.40*12
$GPGSV,4,1,13,07,00,294,,08,47,299,42,10,70,135,44,11,06,284,*70
$GPGSV,4,2,13,13,01,011,,15,15,039,29,18,18,267,,20,57,074,46*7D
$GPGSV,4,3,13,21,30,084,43,26,05,190,,27,80,234,52,30,04,322,*75
$GPGSV,4,4,13,32,07,151,24*4E
$GLGSV,3,1,11,66,23,030,30,67,59,089,49,68,32,167,20,73,20,268,32*61
$GLGSV,3,2,11,74,25,315,40,75,04,005,18,81,03,108,,82,50,093,48*63
$GLGSV,3,3,11,83,67,330,27,84,13,297,25,,,,36*6A
$GNGLL,5213.19592,N,02100.57162,E,151629.00,A,A*78
$GNGST,151629.00,34,,,,2.4,0.80,2.8*72
$GNZDA,151629.00,15,06,2019,00,00*78
$GNRMC,151630.00,A,5213.19594,N,02100.57159,E,0.037,,150619,,,A*69
$GNVTG,,T,,M,0.037,N,0.068,K,A*37
$GNGNS,151630.00,5213.19594,N,02100.57159,E,AA,14,1.21,119.2,34.2,,*68
$GNGSA,A,3,08,20,21,27,15,10,,,,,,,1.85,1.21,1.40*1E
$GNGSA,A,3,84,68,83,66,82,67,74,73,,,,,1.85,1.21,1.40*12
$GPGSV,4,1,13,07,00,294,,08,47,299,42,10,70,135,44,11,06,284,*70
$GPGSV,4,2,13,13,01,011,,15,15,039,30,18,19,268,,20,57,074,46*7B
$GPGSV,4,3,13,21,30,084,43,26,05,190,,27,80,234,52,30,04,322,*75
$GPGSV,4,4,13,32,07,151,25*4F
$GLGSV,3,1,11,66,23,030,30,67,59,089,49,68,32,167,18,73,20,268,32*6A
$GLGSV,3,2,11,74,25,315,40,75,04,005,17,81,03,108,,82,50,093,48*6C
$GLGSV,3,3,11,83,67,330,27,84,13,297,24,,,,36*6B
$GNGLL,5213.19594,N,02100.57159,E,151630.00,A,A*7E
$GNGST,151630.00,32,,,,2.4,0.80,2.8*7C
$GNZDA,151630.00,15,06,2019,00,00*70
$GNRMC,151631.00,A,5213.19594,N,02100.57155,E,0.010,,150619,,,A*61
$GNVTG,,T,,M,0.010,N,0.019,K,A*34
$GNGNS,151631.00,5213.19594,N,02100.57155,E,AA,14,1.21,119.2,34.2,,*65
$GNGSA,A,3,08,20,21,27,15,10,,,,,,,1.85,1.21,1.40*1E
$GNGSA,A,3,84,68,83,66,82,67,74,73,,,,,1.85,1.21,1.40*12
$GPGSV,4,1,13,07,00,294,,08,47,299,42,10,70,135,44,11,06,284,*70
$GPGSV,4,2,13,13,01,011,,15,15,039,31,18,19,268,,20,56,073,46*7C
$GPGSV,4,3,13,21,30,084,43,26,05,190,,27,80,234,52,30,04,322,*75
$GPGSV,4,4,13,32,07,151,24*4E
$GLGSV,3,1,11,66,23,030,31,67,59,089,49,68,32,167,17,73,20,268,31*67
$GLGSV,3,2,11,74,25,315,40,75,04,005,16,81,03,108,,82,50,093,48*6D
$GLGSV,3,3,11,83,67,330,27,84,13,297,23,,,,36*6C
$GNGLL,5213.19594,N,02100.57155,E,151631.00,A,A*73
$GNGST,151631.00,32,,,,2.4,0.80,2.8*7D
$GNZDA,151631.00,15,06,2019,00,00*71
$GNRMC,151632.00,A,5213.19589,N,02100.57151,E,0.010,,150619,,,A*6A
$GNVTG,,T,,M,0.010,N,0.019,K,A*34
$GNGNS,151632.00,5213.19589,N,02100.57151,E,AA,14,1.21,119.1,34.2,,*6D
$GNGSA,A,3,08,20,21,27,15,10,,,,,,,1.85,1.21,1.39*10
$GNGSA,A,3,84,68,83,66,82,67,74,73,,,,,1.85,1.21,1.39*1C
$GPGSV,4,1,13,07,00,294,,08,47,299,43,10,70,135,44,11,06,284,*71
$GPGSV,4,2,13,13,01,011,,15,15,039,31,18,19,268,,20,56,073,46*7C
$GPGSV,4,3,13,21,30,085,43,26,05,190,,27,80,234,52,30,04,322,*74
$GPGSV,4,4,13,32,07,151,24*4E
$GLGSV,3,1,11,66,23,030,33,67,59,089,49,68,32,167,16,73,20,268,29*6D
$GLGSV,3,2,11,74,25,315,40,75,04,005,16,81,03,108,,82,50,093,48*6D
$GLGSV,3,3,11,83,67,330,28,84,13,297,23,,,,36*63
$GNGLL,5213.19589,N,02100.57151,E,151632.00,A,A*78
$GNGST,151632.00,34,,,,2.4,0.80,2.8*78
$GNZDA,151632.00,15,06,2019,00,00*72
$GNRMC,151633.00,A,5213.19582,N,02100.57147,E,0.034,,150619,,,A*61
$GNVTG,,T,,M,0.034,N,0.063,K,A*3F
$GNGNS,151633.00,5213.19582,N,02100.57147,E,AA,14,1.21,119.0,34.2,,*61
$GNGSA,A,3,08,20,21,27,15,10,,,,,,,1.85,1.21,1.39*10
$GNGSA,A,3,84,68,83,66,82,67,74,73,,,,,1.85,1.21,1.39*1C
$GPGSV,4,1,13,07,00,294,,08,47,299,43,10,70,135,45,11,06,284,*70
$GPGSV,4,2,13,13,01,011,,15,15,039,32,18,19,268,,20,56,073,46*7F
$GPGSV,4,3,13,21,30,085,43,26,05,190,,27,80,234,52,30,04,322,*74
$GPGSV,4,4,13,32,07,151,23*49
$GLGSV,3,1,11,66,23,030,33,67,59,089,49,68,32,167,15,73,20,268,29*6E
$GNRMC,151634.00,A,5213.19571,N,02100.57144,E,0.021,,150619,,,A*6D
$GNVTG,,T,,M,0.021,N,0.040,K,A*3A
$GNGNS,151634.00,5213.19571,N,02100.57144,E,AA,14,1.26,118.8,34.2,,*67
$GNGSA,A,3,08,20,21,27,15,10,,,,,,,1.92,1.26,1.45*1A
$GNGSA,A,3,84,68,83,66,82,67,74,73,,,,,1.92,1.26,1.45*16
$GPGSV,4,1,13,07,00,294,,08,47,299,43,10,70,135,45,11,06,284,*70
$GPGSV,4,2,13,13,01,011,,15,15,039,35,18,19,268,,20,56,073,46*78
$GPGSV,4,3,13,21,30,085,43,26,05,190,,27,80,232,52,30,04,322,*72
$GPGSV,4,4,13,32,07,151,21*4B
$GLGSV,3,1,11,66,23,030,36,67,59,089,49,68,32,167,15,73,20,268,29*6B
$GLGSV,3,2,11,74,25,315,39,75,04,005,16,81,03,108,,82,50,093,48*63
$GLGSV,3,3,11,83,67,330,27,84,13,297,22,,,,34*6F
$GNGLL,5213.19571,N,02100.57144,E,151634.00,A,A*7D
$GNGST,151634.00,35,,,,2.4,0.81,2.9*7F
$GNZDA,151634.00,15,06,2019,00,00*74
$GNRMC,151635.00,A,5213.19562,N,02100.57142,E,0.055,,150619,,,A*6B
$GNVTG,,T,,M,0.055,N,0.102,K,A*3E
$GNGNS,151635.00,5213.19562,N,02100.57142,E,AA,14,1.21,118.6,34.2,,*6B
$GNGSA,A,3,08,20,21,27,15,10,,,,,,,1.84,1.21,1.39*11
$GNGSA,A,3,84,68,83,66,82,67,74,73,,,,,1.84,1.21,1.39*1D
$GPGSV,4,1,13,07,00,294,,08,47,299,43,10,70,135,44,11,06,284,*71
$GPGSV,4,2,13,13,01,011,,15,15,039,32,18,19,268,27,20,56,073,46*7A
$GPGSV,4,3,13,21,30,085,43,26,05,190,,27,80,232,53,30,04,322,*73
$GPGSV,4,4,13,32,07,151,21*4B
$GLGSV,3,1,11,66,23,030,35,67,59,089,49,68,32,167,17,73,20,268,29*6A
$GLGSV,3,2,11,74,25,315,40,75,04,005,17,81,03,108,,82,50,093,48*6C
$GLGSV,3,3,11,83,67,330,27,84,13,297,22,,,,33*68
$GNGLL,5213.19562,N,02100.57142,E,151635.00,A,A*78
$GNGST,151635.00,38,,,,2.5,0.82,2.9*71
$GNZDA,151635.00,15,06,2019,00,00*75
$GNRMC,151636.00,A,5213.19553,N,02100.57141,E,0.097,,150619,,,A*67
$GNVTG,,T,,M,0.097,N,0.180,K,A*3A
$GNGNS,151636.00,5213.19553,N,02100.57141,E,AA,14,1.21,118.5,34.2,,*6A
$GNGSA,A,3,08,20,21,27,15,10,,,,,,,1.84,1.21,1.39*11
$GNGSA,A,3,84,68,83,66,82,67,74,73,,,,,1.84,1.21,1.39*1D
$GPGSV,4,1,13,07,00,294,,08,47,299,43,10,70,135,44,11,06,284,*71
$GPGSV,4,2,13,13,01,011,,15,15,039,31,18,19,268,30,20,56,073,46*7F
$GPGSV,4,3,13,21,30,085,43,26,05,190,,27,80,232,53,30,04,322,*73
$GPGSV,4,4,13,32,07,151,21*4B
$GLGSV,3,1,11,66,23,030,35,67,59,089,49,68,32,167,16,73,20,268,29*6B
$GLGSV,3,2,11,74,25,315,39,75,04,005,18,81,03,108,,82,50,093,48*6D
$GLGSV,3,3,11,83,67,330,27,84,13,297,21,,,,33*6B
$GNGLL,5213.19553,N,02100.57141,E,151636.00,A,A*7A
$GNGST,151636.00,38,,,,2.5,0.82,2.9*72
$GNZDA,151636.00,15,06,2019,00,00*76
$GNRMC,151637.00,A,5213.19540,N,02100.57140,E,0.057,,150619,,,A*69
$GNVTG,,T,,M,0.057,N,0.106,K,A*38
$GNGNS,151637.00,5213.19540,N,02100.57140,E,AA,14,1.21,118.3,34.2,,*6E
$GNGSA,A,3,08,20,21,27,15,10,,,,,,,1.84,1.21,1.39*11
$GNGSA,A,3,84,68,83,66,82,67,74,73,,,,,1.84,1.21,1.39*1D
$GPGSV,4,1,13,07,00,294,,08,47,299,44,10,70,135,44,11,06,284,*76
$GPGSV,4,2,13,13,01,011,,15,15,039,31,18,19,268,,20,56,073,46*7C
$GPGSV,4,3,13,21,30,085,43,26,05,190,,27,80,232,53,30,04,322,*73
$GPGSV,4,4,13,32,07,151,22*48
$GLGSV,3,1,11,66,23,030,36,67,59,089,49,68,32,167,15,73,20,268,30*63
$GLGSV,3,2,11,74,25,315,40,75,04,005,19,81,03,108,,82,50,093,48*62
$GLGSV,3,3,11,83,67,330,27,84,13,297,21,,,,27*6E
$GNGLL,5213.19540,N,02100.57140,E,151637.00,A,A*78
$GNGST,151637.00,37,,,,2.5,0.83,2.9*7D
$GNZDA,151637.00,15,06,2019,00,00*77
$GNRMC,151638.00,A,5213.19523,N,02100.57137,E,0.034,,150619,,,A*66
$GNVTG,,T,,M,0.034,N,0.063,K,A*3F
$GNGNS,151638.00,5213.19523,N,02100.57137,E,AA,14,1.21,117.9,34.2,,*61
$GNGSA,A,3,08,20,21,27,15,10,,,,,,,1.84,1.21,1.39*11
$GNGSA,A,3,84,68,83,66,82,67,74,73,,,,,1.84,1.21,1.39*1D
$GPGSV,4,1,13,07,00,294,,08,47,299,44,10,70,135,45,11,06,284,*77
$GPGSV,4,2,13,13,01,011,,15,15,039,31,18,19,268,,20,56,073,46*7C
$GPGSV,4,3,13,21,30,085,43,26,05,190,,27,80,232,53,30,04,322,*73
$GPGSV,4,4,13,32,07,151,21*4B
$GLGSV,3,1,11,66,23,030,37,67,59,089,49,68,32,167,13,73,20,268,31*65
$GLGSV,3,2,11,74,25,315,39,75,04,005,18,81,03,108,,82,50,093,48*6D
$GLGSV,3,3,11,83,67,330,27,84,13,297,20,,,,31*68
$GNGLL,5213.19523,N,02100.57137,E,151638.00,A,A*72
$GNGST,151638.00,35,,,,2.5,0.83,2.9*70
$GNZDA,151638.00,15,06,2019,00,00*78
$GNRMC,151639.00,A,5213.19513,N,02100.57137,E,0.012,,150619,,,A*60
$GNVTG,,T,,M,0.012,N,0.022,K,A*3E
$GNGNS,151639.00,5213.19513,N,02100.57137,E,AA,14,1.21,117.8,34.2,,*62
$GNGSA,A,3,08,20,21,27,15,10,,,,,,,1.84,1.21,1.39*11
$GNGSA,A,3,84,68,83,66,82,67,74,73,,,,,1.84,1.21,1.39*1D
$GPGSV,4,1,13,07,00,294,,08,47,299,44,10,70,135,45,11,06,284,*77
$GPGSV,4,2,13,13,01,011,,15,15,039,32,18,19,268,,20,56,073,46*7F
$GPGSV,4,3,13,21,30,085,43,26,05,190,,27,80,232,53,30,04,322,*73
$GPGSV,4,4,13,32,07,150,20*4B
$GLGSV,3,1,10,66,23,030,36,67,59,089,49,68,32,167,13,73,20,268,30*64
$GLGSV,3,2,10,74,25,315,39,75,04,005,18,81,03,108,,82,50,093,48*6C
$GLGSV,3,3,10,83,67,330,28,84,13,297,20*64
$GNGLL,5213.19513,N,02100.57137,E,151639.00,A,A*70
$GNGST,151639.00,37,,,,2.5,0.84,3.0*7C
$GNZDA,151639.00,15,06,2019,00,00*79
$GNRMC,151640.00,A,5213.19502,N,02100.57136,E,0.003,,150619,,,A*6F
$GNVTG,,T,,M,0.003,N,0.006,K,A*38
$GNGNS,151640.00,5213.19502,N,02100.57136,E,AA,14,1.21,117.6,34.2,,*63
$GNGSA,A,3,08,20,21,27,15,10,,,,,,,1.84,1.21,1.39*11
$GNGSA,A,3,84,68,83,66,82,67,74,73,,,,,1.84,1.21,1.39*1D
$GPGSV,4,1,13,07,00,294,,08,47,299,44,10,70,135,45,11,06,284,*77
$GPGSV,4,2,13,13,01,011,,15,15,039,31,18,19,268,,20,56,073,46*7C
$GPGSV,4,3,13,21,30,085,43,26,05,190,,27,80,232,53,30,04,322,*73
$GPGSV,4,4,13,32,07,150,19*41
$GLGSV,3,1,10,66,23,030,36,67,59,089,49,68,32,167,16,73,20,268,30*61
$GLGSV,3,2,10,74,25,315,39,75,04,005,17,81,03,108,,82,50,093,48*63
$GLGSV,3,3,10,83,67,330,28,84,13,297,20*64
$GNGLL,5213.19502,N,02100.57136,E,151640.00,A,A*7F
$GNGST,151640.00,37,,,,2.5,0.84,3.0*72
$GNZDA,151640.00,15,06,2019,00,00*77
$GNRMC,151641.00,A,5213.19491,N,02100.57135,E,0.028,,150619,,,A*6F
$GNVTG,,T,,M,0.028,N,0.052,K,A*30
$GNGNS,151641.00,5213.19491,N,02100.57135,E,AA,14,1.21,117.4,34.2,,*68
$GNGSA,A,3,08,20,21,27,15,10,,,,,,,1.84,1.21,1.39*11
$GNGSA,A,3,84,68,83,66,82,67,74,73,,,,,1.84,1.21,1.39*1D
$GPGSV,4,1,13,07,00,294,,08,47,299,44,10,70,135,45,11,06,284,*77
$GPGSV,4,2,13,13,01,011,,15,15,039,31,18,19,268,,20,56,073,46*7C
$GPGSV,4,3,13,21,30,085,43,26,05,190,,27,80,232,53,30,04,322,*73
$GPGSV,4,4,13,32,07,150,*49
$GLGSV,3,1,10,66,23,030,36,67,59,089,48,68,32,167,17,73,20,268,31*60
$GLGSV,3,2,10,74,25,315,39,75,04,005,18,81,03,108,,82,50,093,48*6C
$GLGSV,3,3,10,83,67,330,29,84,13,297,21*64
$GNGLL,5213.19491,N,02100.57135,E,151641.00,A,A*76
$GNGST,151641.00,33,,,,2.5,0.84,3.0*77
$GNZDA,151641.00,15,06,2019,00,00*76
$GNRMC,151642.00,A,5213.19480,N,02100.57134,E,0.007,,150619,,,A*60
$GNVTG,,T,,M,0.007,N,0.014,K,A*3F
$GNGNS,151642.00,5213.19480,N,02100.57134,E,AA,14,1.21,117.2,34.2,,*6C
$GNGSA,A,3,08,20,21,27,15,10,,,,,,,1.84,1.21,1.39*11
$GNGSA,A,3,84,68,83,66,82,67,74,73,,,,,1.84,1.21,1.39*1D
$GPGSV,4,1,13,07,00,294,,08,47,299,44,10,70,135,45,11,06,284,*77
$GPGSV,4,2,13,13,01,011,,15,15,039,31,18,19,268,,20,56,073,46*7C
$GPGSV,4,3,13,21,30,085,43,26,05,190,,27,80,232,53,30,04,322,*73
$GPGSV,4,4,13,32,07,150,*49
$GLGSV,3,1,10,66,23,030,36,67,59,089,48,68,32,167,18,73,20,268,32*6C
$GLGSV,3,2,10,74,25,315,39,75,04,005,18,81,03,108,,82,50,093,48*6C
$GLGSV,3,3,10,83,67,330,29,84,13,297,21*64
$GNGLL,5213.19480,N,02100.57134,E,151642.00,A,A*74
$GNGST,151642.00,33,,,,2.5,0.85,3.0*75
$GNZDA,151642.00,15,06,2019,00,00*75
$GNRMC,151643.00,A,5213.19471,N,02100.57132,E,0.026,,150619,,,A*6A
$GNVTG,,T,,M,0.026,N,0.048,K,A*35
$GNGNS,151643.00,5213.19471,N,02100.57132,E,AA,14,1.21,117.0,34.2,,*67
$GNGSA,A,3,08,20,21,27,15,10,,,,,,,1.84,1.21,1.39*11
$GNGSA,A,3,84,68,83,66,82,67,74,73,,,,,1.84,1.21,1.39*1D
$GPGSV,4,1,13,07,00,294,,08,47,299,44,10,70,135,45,11,06,284,*77
$GPGSV,4,2,13,13,01,011,,15,15,039,31,18,19,268,,20,56,073,46*7C
$GPGSV,4,3,13,21,30,085,44,26,05,190,,27,80,232,53,30,04,322,*74
$GPGSV,4,4,13,32,07,150,*49
$GLGSV,3,1,10,66,23,030,36,67,59,089,48,68,32,167,17,73,20,268,32*63
$GLGSV,3,2,10,74,25,315,38,75,04,005,18,81,03,108,,82,50,093,48*6D
$GLGSV,3,3,10,83,67,330,29,84,13,297,21*64
$GNGLL,5213.19471,N,02100.57132,E,151643.00,A,A*7D
$GNGST,151643.00,33,,,,2.5,0.85,3.0*74
$GNZDA,151643.00,15,06,2019,00,00*74
$GNRMC,151644.00,A,5213.19460,N,02100.57131,E,0.068,,150619,,,A*64
$GNVTG,,T,,M,0.068,N,0.126,K,A*36
$GNGNS,151644.00,5213.19460,N,02100.57131,E,AA,14,1.21,116.8,34.2,,*6A
$GNGSA,A,3,08,20,21,27,15,10,,,,,,,1.84,1.21,1.39*11
$GNGSA,A,3,84,68,83,66,82,67,74,73,,,,,1.84,1.21,1.39*1D
$GPGSV,4,1,13,07,00,294,,08,47,299,44,10,70,135,45,11,06,284,*77
$GPGSV,4,2,13,13,01,011,,15,15,039,30,18,19,268,,20,56,073,46*7D
$GPGSV,4,3,13,21,30,085,44,26,05,190,,27,80,232,52,30,04,322,*75
$GPGSV,4,4,13,32,07,150,*49
$GLGSV,3,1,10,66,23,030,35,67,59,088,48,68,32,167,15,73,20,268,32*63
$GLGSV,3,2,10,74,25,315,38,75,04,005,18,81,03,108,,82,50,093,48*6D
$GLGSV,3,3,10,83,67,330,29,84,13,297,21*64
$GNGLL,5213.19460,N,02100.57131,E,151644.00,A,A*79
$GNGST,151644.00,32,,,,2.5,0.86,3.0*71
$GNZDA,151644.00,15,06,2019,00,00*73
$GNRMC,151645.00,A,5213.19451,N,02100.57130,E,0.042,,150619,,,A*6E
$GNVTG,,T,,M,0.042,N,0.078,K,A*34
$GNGNS,151645.00,5213.19451,N,02100.57130,E,AA,14,1.21,116.7,34.2,,*67
$GNGSA,A,3,08,20,21,27,15,10,,,,,,,1.84,1.21,1.39*11
$GNGSA,A,3,84,68,83,66,82,67,74,73,,,,,1.84,1.21,1.39*1D
$GPGSV,4,1,13,07,00,294,,08,47,299,44,10,70,135,45,11,06,284,*77
$GPGSV,4,2,13,13,01,011,,15,15,039,30,18,19,268,,20,56,073,46*7D
$GPGSV,4,3,13,21,30,085,43,26,05,190,,27,80,232,52,30,04,322,*72
$GPGSV,4,4,13,32,07,150,*49
$GLGSV,3,1,10,66,23,030,36,67,59,088,48,68,32,167,14,73,20,268,32*61
$GLGSV,3,2,10,74,25,315,38,75,04,005,19,81,03,108,,82,50,093,48*6C
$GLGSV,3,3,10,83,67,330,29,84,13,297,21*64
$GNGLL,5213.19451,N,02100.57130,E,151645.00,A,A*7B
$GNGST,151645.00,32,,,,2.5,0.86,3.0*70
$GNZDA,151645.00,15,06,2019,00,00*72
$GNRMC,151646.00,A,5213.19444,N,02100.57129,E,0.057,,150619,,,A*65
$GNVTG,,T,,M,0.057,N,0.106,K,A*38
$GNGNS,151646.00,5213.19444,N,02100.57129,E,AA,14,1.21,116.6,34.2,,*69
$GNGSA,A,3,08,20,21,27,15,10,,,,,,,1.84,1.21,1.39*11
$GNGSA,A,3,84,68,83,66,82,67,74,73,,,,,1.84,1.21,1.39*1D
$GPGSV,4,1,13,07,00,294,,08,47,299,44,10,70,135,45,11,06,284,*77
$GPGSV,4,2,13,13,01,011,,15,15,039,28,18,19,268,,20,56,073,46*74
$GPGSV,4,3,13,21,30,085,43,26,05,190,,27,80,232,52,30,04,322,*72
$GPGSV,4,4,13,32,07,150,*49
$GLGSV,3,1,10,66,23,030,36,67,59,088,49,68,32,167,14,73,20,268,33*61
$GLGSV,3,2,10,74,25,315,38,75,04,005,18,81,03,108,,82,50,093,48*6D
$GLGSV,3,3,10,83,67,330,30,84,13,297,22*6F
$GNGLL,5213.19444,N,02100.57129,E,151646.00,A,A*74
$GNGST,151646.00,31,,,,2.6,0.86,3.0*73
$GNZDA,151646.00,15,06,2019,00,00*71
$GNRMC,151647.00,A,5213.19437,N,02100.57129,E,0.067,,150619,,,A*63
$GNVTG,,T,,M,0.067,N,0.124,K,A*3B
$GNGNS,151647.00,5213.19437,N,02100.57129,E,AA,14,1.21,116.5,34.2,,*6F
$GNGSA,A,3,08,20,21,27,15,10,,,,,,,1.84,1.21,1.39*11
$GNGSA,A,3,84,68,83,66,82,67,74,73,,,,,1.84,1.21,1.39*1D
$GPGSV,4,1,13,07,00,294,,08,47,299,44,10,70,135,45,11,06,284,*77
$GPGSV,4,2,13,13,01,011,,15,15,039,29,18,19,268,,20,56,073,46*75
$GPGSV,4,3,13,21,30,085,43,26,05,190,,27,80,232,52,30,04,322,*72
$GPGSV,4,4,13,32,07,150,*49
$GLGSV,3,1,10,66,23,030,36,67,59,088,49,68,32,167,16,73,20,268,33*63
$GLGSV,3,2,10,74,25,315,39,75,04,005,18,81,03,108,,82,50,093,48*6C
$GLGSV,3,3,10,83,67,330,30,84,13,297,22*6F
$GNGLL,5213.19437,N,02100.57129,E,151647.00,A,A*71
$GNGST,151647.00,31,,,,2.5,0.86,3.0*71
$GNZDA,151647.00,15,06,2019,00,00*70
$GNRMC,151648.00,A,5213.19431,N,02100.57129,E,0.034,,150619,,,A*6C
$GNVTG,,T,,M,0.034,N,0.062,K,A*3E
$GNGNS,151648.00,5213.19431,N,02100.57129,E,AA,14,1.21,116.4,34.2,,*67
$GNGSA,A,3,08,20,21,27,15,10,,,,,,,1.84,1.21,1.39*11
$GNGSA,A,3,84,68,83,66,82,67,74,73,,,,,1.84,1.21,1.39*1D
$GPGSV,4,1,13,07,00,294,,08,47,299,44,10,70,135,45,11,06,284,*77
$GPGSV,4,2,13,13,01,011,,15,15,039,28,18,19,268,,20,56,073,46*74
$GPGSV,4,3,13,21,30,085,44,26,05,190,,27,80,232,52,30,04,322,*75
$GPGSV,4,4,13,32,07,150,*49
$GLGSV,3,1,10,66,23,030,36,67,59,088,49,68,32,167,16,73,20,268,33*63
$GLGSV,3,2,10,74,25,315,39,75,04,005,17,81,03,108,,82,50,093,48*63
$GLGSV,3,3,10,83,67,330,30,84,13,297,22*6F
$GNGLL,5213.19431,N,02100.57129,E,151648.00,A,A*78
$GNGST,151648.00,31,,,,2.5,0.86,3.0*7E
$GNZDA,151648.00,15,06,2019,00,00*7F
$GNRMC,151649.00,A,5213.19427,N,02100.57129,E,0.021,,150619,,,A*6E
$GNVTG,,T,,M,0.021,N,0.039,K,A*34
$GNGNS,151649.00,5213.19427,N,02100.57129,E,AA,14,1.21,116.3,34.2,,*66
$GNGSA,A,3,08,20,21,27,15,10,,,,,,,1.84,1.21,1.39*11
$GNGSA,A,3,84,68,83,66,82,67,74,73,,,,,1.84,1.21,1.39*1D
$GPGSV,4,1,13,07,00,294,,08,47,299,44,10,70,135,45,11,06,284,*77
$GPGSV,4,2,13,13,01,011,,15,15,039,27,18,19,268,,20,56,073,46*7B
$GPGSV,4,3,13,21,30,085,44,26,05,190,,27,80,232,52,30,04,322,*75
$GPGSV,4,4,13,32,07,150,*49
$GLGSV,3,1,10,66,23,030,36,67,59,088,49,68,32,167,17,73,20,268,33*62
$GLGSV,3,2,10,74,25,315,38,75,04,005,16,81,03,108,,82,50,093,48*63
$GLGSV,3,3,10,83,67,330,31,84,13,297,23*6F
$GNGLL,5213.19427,N,02100.57129,E,151649.00,A,A*7E
$GNGST,151649.00,31,,,,2.5,0.86,3.0*7F
$GNZDA,151649.00,15,06,2019,00,00*7E
$GNRMC,151650.00,A,5213.19421,N,02100.57128,E,0.015,,150619,,,A*66
$GNVTG,,T,,M,0.015,N,0.028,K,A*33
$GNGNS,151650.00,5213.19421,N,02100.57128,E,AA,14,1.21,116.2,34.2,,*68
$GNGSA,A,3,08,20,21,27,15,10,,,,,,,1.84,1.21,1.39*11
$GNGSA,A,3,84,68,83,66,82,67,74,73,,,,,1.84,1.21,1.39*1D
$GPGSV,4,1,13,07,00,294,,08,47,299,43,10,70,135,45,11,06,284,*70
$GPGSV,4,2,13,13,01,011,,15,15,039,27,18,19,268,,20,56,073,45*78
$GPGSV,4,3,13,21,30,085,44,26,05,190,,27,80,232,52,30,04,322,*75
$GPGSV,4,4,13,32,07,150,*49
$GLGSV,3,1,10,66,23,030,37,67,59,088,49,68,32,167,19,73,19,267,33*68
$GLGSV,3,2,10,74,25,315,38,75,04,005,16,81,03,108,,82,50,093,48*63
$GLGSV,3,3,10,83,67,330,31,84,13,297,24*68
$GNGLL,5213.19421,N,02100.57128,E,151650.00,A,A*71
$GNGST,151650.00,30,,,,2.5,0.86,3.0*76
$GNZDA,151650.00,15,06,2019,00,00*76
$GNRMC,151651.00,A,5213.19415,N,02100.57128,E,0.023,,150619,,,A*65
$GNVTG,,T,,M,0.023,N,0.042,K,A*3A
$GNGNS,151651.00,5213.19415,N,02100.57128,E,AA,14,1.21,116.1,34.2,,*6D
$GNGSA,A,3,08,20,21,27,15,10,,,,,,,1.84,1.21,1.39*11
$GNGSA,A,3,84,68,83,66,82,67,74,73,,,,,1.84,1.21,1.39*1D
$GPGSV,4,1,13,07,00,294,,08,47,299,43,10,70,135,44,11,06,284,*71
$GPGSV,4,2,13,13,01,011,,15,15,039,28,18,19,268,,20,56,073,46*74
$GLGSV,3,1,10,66,23,030,37,67,59,088,49,68,32,167,20,73,19,267,33*62
$GLGSV,3,2,10,74,25,315,39,75,04,005,17,81,03,108,,82,50,093,48*63
$GLGSV,3,3,10,83,67,330,31,84,13,297,24*68
$GNGLL,5213.19415,N,02100.57128,E,151651.00,A,A*77
$GNGST,151651.00,30,,,,2.5,0.86,3.0*77
$GNZDA,151651.00,15,06,2019,00,00*77
$GNRMC,151652.00,A,5213.19405,N,02100.57128,E,0.007,,150619,,,A*61
$GNVTG,,T,,M,0.007,N,0.014,K,A*3F
$GNGNS,151652.00,5213.19405,N,02100.57128,E,AA,14,1.21,116.0,34.2,,*6E
$GNGSA,A,3,08,20,21,27,15,10,,,,,,,1.84,1.21,1.39*11
$GNGSA,A,3,84,68,83,66,82,67,74,73,,,,,1.84,1.21,1.39*1D
$GPGSV,4,1,13,07,00,294,,08,47,299,43,10,70,135,44,11,06,284,*71
$GPGSV,4,2,13,13,01,011,,15,15,039,28,18,19,268,26,20,56,073,46*70
$GPGSV,4,3,13,21,30,085,44,26,05,190,,27,80,232,52,30,04,322,*75
$GPGSV,4,4,13,32,07,150,*49
$GLGSV,3,1,10,66,23,030,38,67,59,088,49,68,32,167,21,73,19,267,34*6B
$GLGSV,3,2,10,74,25,315,38,75,04,005,19,81,03,108,,82,50,093,48*6C
$GLGSV,3,3,10,83,67,330,31,84,13,297,25*69
$GNGLL,5213.19405,N,02100.57128,E,151652.00,A,A*75
$GNGST,151652.00,29,,,,2.5,0.86,3.0*7C
$GNZDA,151652.00,15,06,2019,00,00*74
$GNRMC,151653.00,A,5213.19394,N,02100.57127,E,0.018,,150619,,,A*6E
$GNVTG,,T,,M,0.018,N,0.033,K,A*34
$GNGNS,151653.00,5213.19394,N,02100.57127,E,AA,14,1.21,115.9,34.2,,*65
$GNGSA,A,3,08,20,21,27,15,10,,,,,,,1.84,1.21,1.39*11
$GNGSA,A,3,84,68,83,66,82,67,74,73,,,,,1.84,1.21,1.39*1D
$GPGSV,4,1,13,07,00,294,,08,47,299,43,10,70,135,44,11,06,284,*71
$GPGSV,4,2,13,13,01,011,,15,15,039,29,18,19,268,27,20,56,073,46*70
$GPGSV,4,3,13,21,30,085,44,26,05,190,,27,80,232,52,30,04,322,*75
$GPGSV,4,4,13,32,07,150,*49
$GLGSV,3,1,10,66,23,030,38,67,59,088,49,68,32,167,22,73,19,267,33*6F
$GLGSV,3,2,10,74,25,315,39,75,04,005,20,81,03,108,,82,50,093,48*67
$GLGSV,3,3,10,83,67,330,31,84,13,297,25*69
$GNGLL,5213.19394,N,02100.57127,E,151653.00,A,A*74
$GNGST,151653.00,29,,,,2.5,0.85,3.0*7E
$GNZDA,151653.00,15,06,2019,00,00*75
$GNRMC,151654.00,A,5213.19379,N,02100.57125,E,0.076,,150619,,,A*60
$GNVTG,,T,,M,0.076,N,0.140,K,A*39
$GNGNS,151654.00,5213.19379,N,02100.57125,E,AA,15,1.11,115.7,34.2,,*6F
$GNGSA,A,3,08,20,21,27,15,10,18,,,,,,1.69,1.11,1.28*18
$GNGSA,A,3,84,68,83,66,82,67,74,73,,,,,1.69,1.11,1.28*1D
$GPGSV,4,1,13,07,00,294,,08,47,299,43,10,70,135,44,11,06,284,*71
$GPGSV,4,2,13,13,01,011,,15,15,039,29,18,19,268,27,20,56,073,46*70
$GPGSV,4,3,13,21,30,085,44,26,05,190,,27,80,232,52,30,04,322,*75
$GPGSV,4,4,13,32,07,150,*49
$GLGSV,3,1,10,66,23,030,39,67,59,088,49,68,32,167,22,73,19,267,33*6E
$GLGSV,3,2,10,74,25,315,39,75,04,005,19,81,03,108,,82,50,093,48*6D
$GLGSV,3,3,10,83,67,330,31,84,13,297,24*68
$GNGLL,5213.19379,N,02100.57125,E,151654.00,A,A*72
$GNGST,151654.00,34,,,,2.5,0.85,3.0*75
$GNZDA,151654.00,15,06,2019,00,00*72
$GNRMC,151655.00,A,5213.19361,N,02100.57122,E,0.042,,150619,,,A*68
$GNVTG,,T,,M,0.042,N,0.078,K,A*34
$GNGNS,151655.00,5213.19361,N,02100.57122,E,AA,15,1.11,115.6,34.2,,*61
$GNGSA,A,3,08,20,21,27,15,10,18,,,,,,1.69,1.11,1.28*18
$GNGSA,A,3,84,68,83,66,82,67,74,73,,,,,1.69,1.11,1.28*1D
$GPGSV,4,1,13,07,00,294,,08,47,299,43,10,70,135,44,11,06,284,*71
$GPGSV,4,2,13,13,01,011,,15,15,039,29,18,19,268,28,20,56,073,45*7C
$GPGSV,4,3,13,21,30,085,44,26,05,190,,27,80,232,52,30,04,322,*75
$GPGSV,4,4,13,32,07,150,*49
$GLGSV,3,1,10,66,23,030,40,67,59,088,49,68,32,167,22,73,19,267,33*60
$GLGSV,3,2,10,74,25,315,38,75,04,005,19,81,03,108,,82,50,093,48*6C
$GLGSV,3,3,10,83,67,330,31,84,13,297,22*6E
$GNGLL,5213.19361,N,02100.57122,E,151655.00,A,A*7D
$GNGST,151655.00,35,,,,2.4,0.85,3.0*74
$GNZDA,151655.00,15,06,2019,00,00*73
$GNRMC,151656.00,A,5213.19340,N,02100.57118,E,0.108,,150619,,,A*6E
$GNVTG,,T,,M,0.108,N,0.199,K,A*35
$GNGNS,151656.00,5213.19340,N,02100.57118,E,AA,15,1.10,115.4,34.2,,*6B
$GNGSA,A,3,08,20,21,27,15,10,18,,,,,,1.69,1.10,1.28*19
$GNGSA,A,3,84,68,83,66,82,67,74,73,,,,,1.69,1.10,1.28*1C
$GPGSV,4,1,13,07,00,294,,08,47,299,43,10,70,135,44,11,06,284,*71
$GPGSV,4,2,13,13,01,011,,15,15,039,29,18,19,268,29,20,56,073,45*7D
$GPGSV,4,3,13,21,30,085,44,26,05,190,,27,80,232,52,30,04,322,19*7D
$GPGSV,4,4,13,32,07,150,*49
$GLGSV,3,1,10,66,23,030,40,67,59,088,49,68,32,167,21,73,19,267,33*63
$GLGSV,3,2,10,74,25,315,38,75,04,005,18,81,03,108,,82,50,093,48*6D
$GLGSV,3,3,10,83,67,330,31,84,13,297,20*6C
$GNGLL,5213.19340,N,02100.57118,E,151656.00,A,A*74
$GNGST,151656.00,36,,,,2.4,0.85,3.0*74
$GNZDA,151656.00,15,06,2019,00,00*70
$GNRMC,151657.00,A,5213.19318,N,02100.57115,E,0.090,,150619,,,A*6F
$GNVTG,,T,,M,0.090,N,0.166,K,A*35
$GNGNS,151657.00,5213.19318,N,02100.57115,E,AA,15,1.10,115.3,34.2,,*6D
$GNGSA,A,3,08,20,21,27,15,10,18,,,,,,1.69,1.10,1.28*19
$GNGSA,A,3,84,68,83,66,82,67,74,73,,,,,1.69,1.10,1.28*1C
$GPGSV,4,1,13,07,00,294,,08,47,299,43,10,70,135,43,11,06,284,*76
$GPGSV,4,2,13,13,01,011,,15,15,039,29,18,19,268,29,20,56,073,46*7E
$GPGSV,4,3,13,21,30,085,44,26,05,190,,27,80,232,52,30,04,322,*75
$GPGSV,4,4,13,32,07,150,*49
$GLGSV,3,1,10,66,23,030,41,67,59,088,49,68,32,167,21,73,19,267,34*65
$GLGSV,3,2,10,74,25,315,38,75,04,005,17,81,03,108,,82,50,093,47*6D
$GLGSV,3,3,10,83,67,330,31,84,13,297,20*6C
$GNGLL,5213.19318,N,02100.57115,E,151657.00,A,A*75
$GNGST,151657.00,35,,,,2.4,0.85,3.0*76
$GNZDA,151657.00,15,06,2019,00,00*71
$GNRMC,151658.00,A,5213.19296,N,02100.57112,E,0.061,,150619,,,A*6E
$GNVTG,,T,,M,0.061,N,0.113,K,A*39
$GNGNS,151658.00,5213.19296,N,02100.57112,E,AA,15,1.10,115.2,34.2,,*63
$GNGSA,A,3,08,20,21,27,15,10,18,,,,,,1.69,1.10,1.28*19
$GNGSA,A,3,84,68,83,66,82,67,74,73,,,,,1.69,1.10,1.28*1C
$GPGSV,4,1,13,07,00,294,,08,47,299,42,10,70,135,43,11,06,284,*77
$GPGSV,4,2,13,13,01,011,,15,15,039,30,18,19,268,29,20,56,073,46*76
$GPGSV,4,3,13,21,30,085,44,26,05,190,,27,80,232,52,30,04,322,*75
$GPGSV,4,4,13,32,07,150,25*4E
$GLGSV,3,1,10,66,23,030,41,67,59,088,49,68,32,167,20,73,19,267,34*64
$GLGSV,3,2,10,74,25,315,38,75,04,005,16,81,03,109,,82,50,093,47*6D
$GLGSV,3,3,10,83,67,330,32,84,13,297,21*6E
$GNGLL,5213.19296,N,02100.57112,E,151658.00,A,A*7A
$GNGST,151658.00,31,,,,2.4,0.85,3.0*7D
$GNZDA,151658.00,15,06,2019,00,00*7E
$GNRMC,151659.00,A,5213.19278,N,02100.57108,E,0.013,,150619,,,A*61
$GNVTG,,T,,M,0.013,N,0.024,K,A*39
$GNGNS,151659.00,5213.19278,N,02100.57108,E,AA,15,1.10,115.1,34.2,,*6A
$GNGSA,A,3,08,20,21,27,15,10,18,,,,,,1.69,1.10,1.28*19
$GNGSA,A,3,84,68,83,66,82,67,74,73,,,,,1.69,1.10,1.28*1C
$GPGSV,4,1,13,07,00,294,,08,47,299,42,10,70,135,43,11,06,284,*77
$GPGSV,4,2,13,13,01,011,,15,15,039,31,18,19,268,29,20,56,073,46*77
