$GNRMC,151332.00,A,5213.19616,N,02100.56942,E,0.077,,150619,,,A*60
$GNVTG,,T,,M,0.077,N,0.142,K,A*3A
$GNGNS,151332.00,5213.19616,N,02100.56942,E,AA,11,2.05,115.0,34.2,,*6B
$GNGSA,A,3,08,20,21,27,15,10,,,,,,,3.41,2.05,2.73*12
$GNGSA,A,3,83,66,82,67,74,,,,,,,,3.41,2.05,2.73*18
$GNRMC,151349.00,A,5213.19782,N,02100.57038,E,0.021,,150619,,,A*66
$GNVTG,,T,,M,0.021,N,0.038,K,A*35
$GNGNS,151349.00,5213.19782,N,02100.57038,E,AA,12,0.98,117.1,34.2,,*68
$GNGSA,A,3,08,20,21,27,15,10,,,,,,,1.73,0.98,1.42*16
$GNGSA,A,3,68,83,66,82,67,74,,,,,,,1.73,0.98,1.42*12
$GNRMC,151350.00,A,5213.19783,N,02100.57036,E,0.022,,150619,,,A*62
$GNVTG,,T,,M,0.022,N,0.041,K,A*38
$GNGNS,151350.00,5213.19783,N,02100.57036,E,AA,12,0.98,117.1,34.2,,*6F
$GNGSA,A,3,08,20,21,27,15,10,,,,,,,1.73,0.98,1.42*16
$GNGSA,A,3,68,83,66,82,67,74,,,,,,,1.73,0.98,1.42*12
$GPGSV,3,1,09,07,00,295,,08,46,300,39,10,70,139,43,15,16,040,35*73
$GPGSV,3,2,09,20,57,075,46,21,31,084,43,26,06,190,17,27,80,240,52*7B
$GPGSV,3,3,09,30,04,323,*45
$GLGSV,3,1,10,66,24,031,35,67,58,091,49,68,30,167,25,73,20,269,36*69
$GLGSV,3,2,10,74,25,317,39,75,03,006,,81,04,108,13,82,51,092,48*66
$GLGSV,3,3,10,83,66,328,33,84,12,296,15*60
$GNGLL,5213.19783,N,02100.57036,E,151350.00,A,A*71
$GNGST,151350.00,23,,,,2.4,0.97,3.5*75
$GNZDA,151350.00,15,06,2019,00,00*73
$GNRMC,151351.00,A,5213.19784,N,02100.57031,E,0.052,,150619,,,A*64
$GNVTG,,T,,M,0.052,N,0.097,K,A*34
$GPGSV,3,1,09,07,00,295,,08,46,300,39,10,70,139,43,15,16,040,35*73
$GPGSV,3,2,09,20,57,075,46,21,31,084,42,26,06,190,,27,80,240,52*7C
$GPGSV,3,3,09,30,04,323,*45
$GLGSV,3,1,10,66,24,031,36,67,58,091,49,68,30,167,25,73,20,269,36*6A
$GLGSV,3,2,10,74,25,317,40,75,03,006,,81,04,108,16,82,51,092,48*6D
$GLGSV,3,3,10,83,66,328,33,84,12,296,14*61
$GNGLL,5213.19784,N,02100.57031,E,151351.00,A,A*70
$GNGST,151351.00,23,,,,2.4,0.97,3.5*74
$GNZDA,151351.00,15,06,2019,00,00*72
µb
úEXT CORE 3.01 (db0c89)00080000ROM BASE 3.01 (107888)FWVER=HPG 1.40REFPROTVER=20.30MOD=NEO-M8P-2FIS=0xC22536 (100111)GPS;GLO;BDSQZSSØÛ$GNRMC,151352.00,A,5213.19782,N,02100.57027,E,0.053,,150619,,,A*67
$GNVTG,,T,,M,0.053,N,0.098,K,A*3A
$GNGNS,151352.00,5213.19782,N,02100.57027,E,AA,12,0.98,116.9,34.2,,*65
$GNGSA,A,3,08,20,21,27,15,10,,,,,,,1.73,0.98,1.42*16
$GNGSA,A,3,68,83,66,82,67,74,,,,,,,1.73,0.98,1.42*12
$GPGSV,3,1,09,07,00,295,,08,46,300,38,10,70,139,43,15,16,040,34*73
$GPGSV,3,2,09,20,57,075,47,21,31,084,42,26,06,190,,27,80,240,52*7D
$GPGSV,3,3,09,30,04,323,*45
$GLGSV,3,1,10,66,24,031,35,67,58,091,49,68,30,167,25,73,20,269,36*69
$GLGSV,3,2,10,74,25,317,40,75,03,006,,81,04,108,18,82,51,092,48*63
$GLGSV,3,3,10,83,66,328,33,84,12,296,13*66
$GNGLL,5213.19782,N,02100.57027,E,151352.00,A,A*72
$GNGST,151352.00,24,,,,2.4,0.96,3.5*71
$GNZDA,151352.00,15,06,2019,00,00*71
$GNRMC,151353.00,A,5213.19782,N,02100.57023,E,0.008,,150619,,,A*6C
$GNVTG,,T,,M,0.008,N,0.015,K,A*31
$GNGNS,151353.00,5213.19782,N,02100.57023,E,AA,12,0.98,116.9,34.2,,*60
$GNGSA,A,3,08,20,21,27,15,10,,,,,,,1.73,0.98,1.42*16
$GNGSA,A,3,68,83,66,82,67,74,,,,,,,1.73,0.98,1.42*12
$GPGSV,3,1,09,07,00,295,,08,46,300,38,10,70,139,43,15,16,040,34*73
$GPGSV,3,2,09,20,57,075,47,21,31,084,42,26,06,190,,27,80,240,52*7D
$GPGSV,3,3,09,30,04,323,*45
$GLGSV,3,1,10,66,24,031,34,67,58,091,48,68,30,167,26,73,20,269,35*69
$GLGSV,3,2,10,74,25,317,40,75,03,006,,81,04,108,19,82,51,092,48*62
$GLGSV,3,3,10,83,66,328,33,84,12,296,13*66
$GNGLL,5213.19782,N,02100.57023,E,151353.00,A,A*77
$GNGST,151353.00,23,,,,2.4,0.96,3.5*77
$GNZDA,151353.00,15,06,2019,00,00*70
$GNRMC,151354.00,A,5213.19780,N,02100.57018,E,0.049,,150619,,,A*64
$GNVTG,,T,,M,0.049,N,0.091,K,A*38
$GNGNS,151354.00,5213.19780,N,02100.57018,E,AA,12,0.98,116.8,34.2,,*6C
$GNGSA,A,3,08,20,21,27,15,10,,,,,,,1.73,0.98,1.42*16
$GNGSA,A,3,68,83,66,82,67,74,,,,,,,1.73,0.98,1.42*12
$GPGSV,3,1,09,07,00,295,,08,46,300,38,10,70,139,43,15,16,040,34*73
$GPGSV,3,2,09,20,57,075,47,21,31,084,42,26,06,190,,27,80,240,51*7E
$GPGSV,3,3,09,30,04,323,*45
$GLGSV,3,1,10,66,24,031,35,67,58,091,48,68,30,167,26,73,20,269,35*68
$GLGSV,3,2,10,74,25,317,40,75,03,006,,81,04,108,20,82,51,092,48*68
$GLGSV,3,3,10,83,66,328,34,84,12,296,10*62
$GNGLL,5213.19780,N,02100.57018,E,151354.00,A,A*7A
$GNGST,151354.00,22,,,,2.4,0.96,3.4*70
$GNZDA,151354.00,15,06,2019,00,00*77
$GNRMC,151355.00,A,5213.19773,N,02100.57010,E,0.062,,150619,,,A*68
$GNVTG,,T,,M,0.062,N,0.115,K,A*3C
$GNGNS,151355.00,5213.19773,N,02100.57010,E,AA,12,2.04,116.6,34.2,,*60
$GNGSA,A,3,08,20,21,27,15,10,,,,,,,3.40,2.04,2.71*10
$GNGSA,A,3,68,83,66,82,67,74,,,,,,,3.40,2.04,2.71*14
$GPGSV,3,1,09,07,00,295,,08,46,300,37,10,70,139,43,15,16,040,33*7B
$GPGSV,3,2,09,20,57,075,47,21,31,084,42,26,06,190,,27,80,240,51*7E
$GPGSV,3,3,09,30,04,323,*45
$GLGSV,3,1,10,66,24,031,35,67,58,091,48,68,30,167,25,73,20,269,35*6B
$GLGSV,3,2,10,74,25,317,40,75,03,006,,81,04,108,21,82,51,092,48*69
$GLGSV,3,3,10,83,66,328,33,84,12,296,*64
$GNGLL,5213.19773,N,02100.57010,E,151355.00,A,A*7F
$GNGST,151355.00,13,,,,2.4,0.96,3.4*73
$GNZDA,151355.00,15,06,2019,00,00*76
$GNRMC,151356.00,A,5213.19765,N,02100.57003,E,0.045,,150619,,,A*6B
$GNVTG,,T,,M,0.045,N,0.084,K,A*30
$GNGNS,151356.00,5213.19765,N,02100.57003,E,AA,12,2.04,116.4,34.2,,*64
$GNGSA,A,3,08,20,21,27,15,10,,,,,,,3.39,2.04,2.71*1E
$GNGSA,A,3,68,83,66,82,67,74,,,,,,,3.39,2.04,2.71*1A
$GPGSV,3,1,09,07,00,295,,08,46,300,37,10,70,139,43,15,16,040,33*7B
$GPGSV,3,2,09,20,57,075,47,21,31,084,42,26,06,190,,27,80,240,51*7E
$GPGSV,3,3,09,30,04,323,*45
$GLGSV,3,1,10,66,24,031,34,67,58,091,49,68,30,167,23,73,20,269,35*6D
$GLGSV,3,2,10,74,25,317,39,75,03,006,,81,04,108,22,82,51,092,48*64
$GLGSV,3,3,10,83,66,328,33,84,12,296,*64
$GNGLL,5213.19765,N,02100.57003,E,151356.00,A,A*79
$GNGST,151356.00,14,,,,2.4,0.96,3.4*77
$GNZDA,151356.00,15,06,2019,00,00*75
$GNRMC,151357.00,A,5213.19757,N,02100.56997,E,0.054,,150619,,,A*6E
$GNVTG,,T,,M,0.054,N,0.100,K,A*3D
$GNGNS,151357.00,5213.19757,N,02100.56997,E,AA,12,2.04,116.2,34.2,,*67
$GNGSA,A,3,08,20,21,27,15,10,,,,,,,3.39,2.04,2.71*1E
$GNGSA,A,3,68,83,66,82,67,74,,,,,,,3.39,2.04,2.71*1A
$GPGSV,3,1,09,07,00,295,,08,46,300,36,10,70,139,43,15,16,040,33*7A
$GPGSV,3,2,09,20,57,075,47,21,31,084,42,26,06,190,,27,80,240,51*7E
$GPGSV,3,3,09,30,04,323,*45
$GLGSV,3,1,10,66,24,031,33,67,58,091,49,68,30,167,22,73,20,269,35*6B
$GLGSV,3,2,10,74,25,317,40,75,03,006,,81,04,108,22,82,51,092,48*6A
$GLGSV,3,3,10,83,66,328,33,84,12,296,*64
$GNGLL,5213.19757,N,02100.56997,E,151357.00,A,A*7C
$GNGST,151357.00,15,,,,2.4,0.97,3.5*77
$GNZDA,151357.00,15,06,2019,00,00*74
$GNRMC,151358.00,A,5213.19750,N,02100.56991,E,0.043,,150619,,,A*66
$GNVTG,,T,,M,0.043,N,0.079,K,A*34
$GNGNS,151358.00,5213.19750,N,02100.56991,E,AA,12,2.04,116.0,34.2,,*6B
$GNGSA,A,3,08,20,21,27,15,10,,,,,,,3.39,2.04,2.71*1E
$GNGSA,A,3,68,83,66,82,67,74,,,,,,,3.39,2.04,2.71*1A
$GPGSV,3,1,09,07,00,295,,08,46,300,35,10,70,139,44,15,16,040,32*7F
$GPGSV,3,2,09,20,57,075,47,21,31,084,43,26,06,190,,27,80,240,51*7F
$GPGSV,3,3,09,30,04,323,*45
$GLGSV,3,1,10,66,24,031,33,67,58,091,48,68,30,167,22,73,20,269,35*6A
$GLGSV,3,2,10,74,25,317,40,75,03,006,,81,04,108,22,82,51,092,48*6A
$GLGSV,3,3,10,83,66,328,34,84,12,296,*63
$GNGLL,5213.19750,N,02100.56991,E,151358.00,A,A*72
$GNGST,151358.00,15,,,,2.4,0.97,3.5*78
$GNZDA,151358.00,15,06,2019,00,00*7B
$GNRMC,151359.00,A,5213.19744,N,02100.56984,E,0.050,,150619,,,A*64
$GNVTG,,T,,M,0.050,N,0.092,K,A*33
$GNGNS,151359.00,5213.19744,N,02100.56984,E,AA,12,2.04,115.8,34.2,,*60
$GNGSA,A,3,08,20,21,27,15,10,,,,,,,3.39,2.04,2.71*1E
$GNGSA,A,3,68,83,66,82,67,74,,,,,,,3.39,2.04,2.71*1A
$GPGSV,3,1,09,07,00,295,,08,46,300,35,10,70,139,44,15,16,040,32*7F
$GPGSV,3,2,09,20,57,075,47,21,31,084,43,26,06,190,,27,80,240,51*7F
$GPGSV,3,3,09,30,04,323,*45
$GLGSV,3,1,10,66,24,031,33,67,58,091,49,68,30,167,21,73,20,269,35*68
$GLGSV,3,2,10,74,25,317,40,75,03,006,,81,04,108,22,82,51,092,48*6A
$GLGSV,3,3,10,83,66,328,34,84,12,296,*63
$GNGLL,5213.19744,N,02100.56984,E,151359.00,A,A*72
$GNGST,151359.00,15,,,,2.5,0.97,3.5*78
$GNZDA,151359.00,15,06,2019,00,00*7A
$GNRMC,151400.00,A,5213.19737,N,02100.56977,E,0.033,,150619,,,A*62
$GNVTG,,T,,M,0.033,N,0.061,K,A*3A
$GNGNS,151400.00,5213.19737,N,02100.56977,E,AA,12,2.04,115.7,34.2,,*6C
$GNGSA,A,3,08,20,21,27,15,10,,,,,,,3.39,2.04,2.71*1E
$GNGSA,A,3,68,83,66,82,67,74,,,,,,,3.39,2.04,2.71*1A
$GPGSV,3,1,09,07,00,295,,08,46,300,35,10,70,139,44,15,16,040,32*7F
$GPGSV,3,2,09,20,57,075,47,21,31,084,43,26,06,190,,27,80,240,51*7F
$GPGSV,3,3,09,30,04,323,*45
$GLGSV,3,1,10,66,24,031,33,67,58,091,49,68,30,167,20,73,20,269,35*69
$GLGSV,3,2,10,74,25,317,40,75,03,006,,81,04,108,21,82,51,092,48*69
$GLGSV,3,3,10,83,66,328,34,84,12,296,*63
$GNGLL,5213.19737,N,02100.56977,E,151400.00,A,A*71
$GNGST,151400.00,15,,,,2.5,0.98,3.5*7C
$GNZDA,151400.00,15,06,2019,00,00*71
$GNRMC,151401.00,A,5213.19731,N,02100.56970,E,0.017,,150619,,,A*64
$GNVTG,,T,,M,0.017,N,0.031,K,A*39
$GNGNS,151401.00,5213.19731,N,02100.56970,E,AA,12,2.04,115.6,34.2,,*6D
$GNGSA,A,3,08,20,21,27,15,10,,,,,,,3.39,2.04,2.71*1E
$GNGSA,A,3,68,83,66,82,67,74,,,,,,,3.39,2.04,2.71*1A
$GPGSV,3,1,09,07,00,295,,08,46,300,34,10,70,139,44,15,16,040,32*7E
$GLGSV,3,3,10,83,66,328,33,84,12,296,*64
$GNGLL,5213.19731,N,02100.56970,E,151401.00,A,A*71
$GNGST,151401.00,16,,,,2.5,0.98,3.5*7E
$GNZDA,151401.00,15,06,2019,00,00*70
µb
úEXT CORE 3.01 (db0c89)00080000ROM BASE 3.01 (107888)FWVER=HPG 1.40REFPROTVER=20.30MOD=NEO-M8P-2FIS=0xC22536 (100111)GPS;GLO;BDSQZSSØÛ$GNRMC,151402.00,A,5213.19725,N,02100.56963,E,0.112,,150619,,,A*64
$GNVTG,,T,,M,0.112,N,0.207,K,A*3A
$GNGNS,151402.00,5213.19725,N,02100.56963,E,AA,12,2.04,115.4,34.2,,*6B
$GNGSA,A,3,08,20,21,27,15,10,,,,,,,3.39,2.04,2.71*1E
$GNGSA,A,3,68,83,66,82,67,74,,,,,,,3.39,2.04,2.71*1A
$GPGSV,3,1,09,07,00,295,,08,46,300,34,10,70,139,44,15,16,040,31*7D
$GPGSV,3,2,09,20,57,075,48,21,31,084,43,26,06,190,,27,80,240,51*70
$GPGSV,3,3,09,30,04,323,*45
$GLGSV,3,1,10,66,24,031,32,67,58,091,49,68,30,167,17,73,20,269,35*6C
$GLGSV,3,2,10,74,25,317,40,75,03,006,,81,04,108,22,82,51,092,48*6A
$GLGSV,3,3,10,83,66,328,33,84,12,296,*64
$GNGLL,5213.19725,N,02100.56963,E,151402.00,A,A*75
$GNGST,151402.00,17,,,,2.5,0.98,3.5*7C
$GNZDA,151402.00,15,06,2019,00,00*73
$GNRMC,151403.00,A,5213.19721,N,02100.56959,E,0.014,,150619,,,A*6F
$GNVTG,,T,,M,0.014,N,0.025,K,A*3F
$GNGNS,151403.00,5213.19721,N,02100.56959,E,AA,13,1.25,115.4,34.2,,*66
$GNGSA,A,3,08,20,21,27,15,10,,,,,,,1.99,1.25,1.55*13
$GNGSA,A,3,68,83,66,82,67,74,73,,,,,,1.99,1.25,1.55*13
$GPGSV,3,1,09,07,00,295,,08,46,300,34,10,70,139,44,15,16,040,30*7C
$GPGSV,3,2,09,20,57,075,48,21,31,084,43,26,06,190,,27,80,240,52*73
$GPGSV,3,3,09,30,04,323,*45
$GLGSV,3,1,10,66,24,031,32,67,58,091,48,68,30,167,17,73,20,269,35*6D
$GLGSV,3,2,10,74,25,317,40,75,03,006,,81,04,108,22,82,51,092,48*6A
$GLGSV,3,3,10,83,66,328,33,84,12,296,*64
$GNGLL,5213.19721,N,02100.56959,E,151403.00,A,A*79
$GNGST,151403.00,18,,,,2.5,0.98,3.5*72
$GNZDA,151403.00,15,06,2019,00,00*72
$GNRMC,151404.00,A,5213.19721,N,02100.56957,E,0.078,,150619,,,A*6C
$GNVTG,,T,,M,0.078,N,0.144,K,A*33
$GNGNS,151404.00,5213.19721,N,02100.56957,E,AA,13,1.25,115.4,34.2,,*6F
$GNGSA,A,3,08,20,21,27,15,10,,,,,,,1.99,1.25,1.55*13
$GNGSA,A,3,68,83,66,82,67,74,73,,,,,,1.99,1.25,1.55*13
$GPGSV,3,1,09,07,00,295,,08,46,300,35,10,70,139,44,15,16,040,29*75
$GPGSV,3,2,09,20,57,075,48,21,31,084,43,26,06,190,,27,80,240,52*73
$GPGSV,3,3,09,30,04,323,*45
$GLGSV,3,1,10,66,24,031,31,67,58,091,49,68,30,167,16,73,20,269,34*6F
$GLGSV,3,2,10,74,25,317,40,75,03,006,,81,04,108,21,82,51,092,48*69
$GLGSV,3,3,10,83,66,328,34,84,12,296,21*60
$GNGLL,5213.19721,N,02100.56957,E,151404.00,A,A*70
$GNGST,151404.00,23,,,,2.5,0.97,3.4*73
$GNZDA,151404.00,15,06,2019,00,00*75
$GNRMC,151405.00,A,5213.19720,N,02100.56954,E,0.042,,150619,,,A*66
$GNVTG,,T,,M,0.042,N,0.077,K,A*3B
$GNGNS,151405.00,5213.19720,N,02100.56954,E,AA,13,1.25,115.5,34.2,,*6D
$GNGSA,A,3,08,20,21,27,15,10,,,,,,,1.99,1.25,1.55*13
$GNGSA,A,3,68,83,66,82,67,74,73,,,,,,1.99,1.25,1.55*13
$GPGSV,3,1,09,07,00,295,,08,46,300,35,10,70,139,44,15,16,040,29*75
$GPGSV,3,2,09,20,57,075,48,21,31,084,43,26,06,190,17,27,80,240,52*75
$GPGSV,3,3,09,30,04,323,*45
$GLGSV,3,1,10,66,24,031,31,67,58,091,49,68,30,167,15,73,20,269,34*6C
$GLGSV,3,2,10,74,25,317,41,75,03,006,,81,04,108,20,82,51,092,48*69
$GLGSV,3,3,10,83,66,328,34,84,12,296,20*61
$GNGLL,5213.19720,N,02100.56954,E,151405.00,A,A*73
$GNGST,151405.00,23,,,,2.5,0.97,3.4*72
$GNZDA,151405.00,15,06,2019,00,00*74
$GNRMC,151406.00,A,5213.19718,N,02100.56952,E,0.037,,150619,,,A*6A
$GNVTG,,T,,M,0.037,N,0.069,K,A*36
$GNGNS,151406.00,5213.19718,N,02100.56952,E,AA,13,1.25,115.4,34.2,,*62
$GNGSA,A,3,08,20,21,27,15,10,,,,,,,1.99,1.25,1.55*13
$GNGSA,A,3,68,83,66,82,67,74,73,,,,,,1.99,1.25,1.55*13
$GPGSV,3,1,09,07,00,295,,08,46,300,35,10,70,139,44,15,16,040,28*74
$GPGSV,3,2,09,20,57,075,48,21,31,084,42,26,06,190,17,27,80,240,52*74
$GPGSV,3,3,09,30,04,323,*45
$GLGSV,3,1,10,66,24,031,31,67,58,091,49,68,30,167,16,73,20,269,34*6F
$GLGSV,3,2,10,74,25,317,41,75,03,006,,81,04,108,20,82,51,092,48*69
$GLGSV,3,3,10,83,66,328,34,84,12,296,20*61
$GNGLL,5213.19718,N,02100.56952,E,151406.00,A,A*7D
$GNGST,151406.00,24,,,,2.5,0.97,3.4*76
$GNZDA,151406.00,15,06,2019,00,00*77
$GNRMC,151407.00,A,5213.19715,N,02100.56950,E,0.012,,150619,,,A*63
$GNVTG,,T,,M,0.012,N,0.023,K,A*3F
$GNGNS,151407.00,5213.19715,N,02100.56950,E,AA,13,1.25,115.4,34.2,,*6C
$GNGSA,A,3,08,20,21,27,15,10,,,,,,,1.99,1.25,1.55*13
$GNGSA,A,3,68,83,66,82,67,74,73,,,,,,1.99,1.25,1.55*13
$GPGSV,3,1,09,07,00,295,,08,46,300,34,10,70,139,44,15,16,040,27*7A
$GPGSV,3,2,09,20,57,075,48,21,31,084,42,26,06,190,18,27,80,240,52*7B
$GPGSV,3,3,09,30,04,323,*45
$GLGSV,3,1,10,66,24,031,30,67,58,091,49,68,30,167,14,73,20,269,33*6B
$GLGSV,3,2,10,74,25,317,41,75,03,006,,81,04,108,20,82,51,092,48*69
$GLGSV,3,3,10,83,66,328,34,84,12,296,21*60
$GNGLL,5213.19715,N,02100.56950,E,151407.00,A,A*73
$GNGST,151407.00,25,,,,2.5,0.96,3.4*77
$GNZDA,151407.00,15,06,2019,00,00*76
$GNRMC,151408.00,A,5213.19712,N,02100.56948,E,0.011,,150619,,,A*61
$GNVTG,,T,,M,0.011,N,0.021,K,A*3E
$GNGNS,151408.00,5213.19712,N,02100.56948,E,AA,13,1.25,115.3,34.2,,*6A
$GNGSA,A,3,08,20,21,27,15,10,,,,,,,1.99,1.25,1.54*12
$GNGSA,A,3,68,83,66,82,67,74,73,,,,,,1.99,1.25,1.54*12
$GPGSV,3,1,09,07,00,295,,08,46,300,33,10,70,139,44,15,16,040,27*7D
$GNGST,151408.00,25,,,,2.5,0.96,3.4*78
$GNZDA,151408.00,15,06,2019,00,00*79
µb
úEXT CORE 3.01 (db0c89)00080000ROM BASE 3.01 (107888)FWVER=HPG 1.40REFPROTVER=20.30MOD=NEO-M8P-2FIS=0xC22536 (100111)GPS;GLO;BDSQZSSØÛµb
úEXT CORE 3.01 (db0c89)00080000ROM BASE 3.01 (107888)FWVER=HPG 1.40REFPROTVER=20.30MOD=NEO-M8P-2FIS=0xC22536 (100111)GPS;GLO;BDSQZSSØÛ$GNRMC,151409.00,A,5213.19705,N,02100.56945,E,0.008,,150619,,,A*63
$GNVTG,,T,,M,0.008,N,0.015,K,A*31
$GNGNS,151409.00,5213.19705,N,02100.56945,E,AA,13,1.25,115.2,34.2,,*61
$GNGSA,A,3,08,20,21,27,15,10,,,,,,,1.99,1.25,1.54*12
$GNGSA,A,3,68,83,66,82,67,74,73,,,,,,1.99,1.25,1.54*12
$GPGSV,3,1,09,07,00,295,,08,46,300,33,10,70,139,44,15,16,040,27*7D
$GPGSV,3,2,09,20,57,075,48,21,31,084,42,26,06,190,17,27,80,240,52*74
$GPGSV,3,3,09,30,04,323,*45
$GLGSV,3,1,10,66,24,031,30,67,58,091,49,68,30,167,13,73,20,269,33*6C
$GLGSV,3,2,10,74,25,317,40,75,03,006,,81,04,108,19,82,51,092,48*62
$GLGSV,3,3,10,83,66,328,34,84,12,296,21*60
$GNGLL,5213.19705,N,02100.56945,E,151409.00,A,A*78
$GNGST,151409.00,25,,,,2.5,0.96,3.4*79
$GNZDA,151409.00,15,06,2019,00,00*78
$GNRMC,151410.00,A,5213.19699,N,02100.56943,E,0.016,,150619,,,A*66
$GNVTG,,T,,M,0.016,N,0.029,K,A*31
$GNGNS,151410.00,5213.19699,N,02100.56943,E,AA,13,1.25,115.1,34.2,,*68
$GNGSA,A,3,08,20,21,27,15,10,,,,,,,1.98,1.25,1.54*13
$GNGSA,A,3,68,83,66,82,67,74,73,,,,,,1.98,1.25,1.54*13
$GPGSV,3,1,09,07,00,295,,08,46,300,32,10,70,139,44,15,16,040,26*7D
$GPGSV,3,2,09,20,57,075,48,21,31,084,42,26,06,190,18,27,80,240,52*7B
$GPGSV,3,3,09,30,04,323,*45
$GLGSV,3,1,10,66,24,031,29,67,58,091,48,68,30,167,12,73,20,269,33*64
$GLGSV,3,2,10,74,25,317,40,75,03,006,,81,04,108,18,82,51,092,49*62
$GLGSV,3,3,10,83,66,328,34,84,12,296,21*60
$GNGLL,5213.19699,N,02100.56943,E,151410.00,A,A*72
$GNGST,151410.00,30,,,,2.5,0.96,3.3*72
µb
úEXT CORE 3.01 (db0c89)00080000ROM BASE 3.01 (107888)FWVER=HPG 1.40REFPROTVER=20.30MOD=NEO-M8P-2FIS=0xC22536 (100111)GPS;GLO;BDSQZSSØÛ$GNRMC,151411.00,A,5213.19691,N,02100.56940,E,0.016,,150619,,,A*6C
$GNVTG,,T,,M,0.016,N,0.029,K,A*31
$GNGNS,151411.00,5213.19691,N,02100.56940,E,AA,13,1.25,115.0,34.2,,*63
$GNGSA,A,3,08,20,21,27,15,10,,,,,,,1.98,1.25,1.54*13
$GNGSA,A,3,68,83,66,82,67,74,73,,,,,,1.98,1.25,1.54*13
$GPGSV,3,1,09,07,00,295,,08,46,300,31,10,70,139,44,15,16,040,25*7D
$GPGSV,3,2,09,20,57,075,48,21,31,084,42,26,06,190,18,27,80,240,52*7B
$GPGSV,3,3,09,30,04,323,*45
$GLGSV,3,1,10,66,24,031,28,67,58,091,48,68,30,167,12,73,20,269,33*65
$GLGSV,3,2,10,74,25,317,40,75,03,006,,81,04,108,19,82,51,092,49*63
$GLGSV,3,3,10,83,66,328,34,84,12,296,22*63
$GNGLL,5213.19691,N,02100.56940,E,151411.00,A,A*78
$GNGST,151411.00,31,,,,2.5,0.96,3.3*72
$GNZDA,151411.00,15,06,2019,00,00*71
$GNRMC,151412.00,A,5213.19684,N,02100.56937,E,0.044,,150619,,,A*6C
$GNVTG,,T,,M,0.044,N,0.081,K,A*34
$GNGNS,151412.00,5213.19684,N,02100.56937,E,AA,13,1.29,114.8,34.2,,*61
$GNGSA,A,3,08,20,21,27,15,10,,,,,,,2.08,1.29,1.63*11
$GNGSA,A,3,68,83,66,82,67,74,73,,,,,,2.08,1.29,1.63*11
$GPGSV,3,1,09,07,00,295,,08,46,300,30,10,70,138,44,15,16,040,24*7C
$GPGSV,3,2,09,20,57,075,48,21,31,084,42,26,06,190,18,27,80,240,52*7B
$GPGSV,3,3,09,30,04,323,*45
$GLGSV,3,1,10,66,24,031,27,67,58,091,48,68,30,167,14,73,20,269,33*6C
$GLGSV,3,2,10,74,25,317,40,75,03,006,,81,04,108,18,82,51,092,49*62
$GLGSV,3,3,10,83,66,328,34,84,12,296,22*63
$GNGLL,5213.19684,N,02100.56937,E,151412.00,A,A*7F
$GNGST,151412.00,25,,,,2.5,0.95,3.3*77
$GNZDA,151412.00,15,06,2019,00,00*72
$GNRMC,151413.00,A,5213.19678,N,02100.56934,E,0.041,,150619,,,A*68
$GNVTG,,T,,M,0.041,N,0.075,K,A*3A
$GNGNS,151413.00,5213.19678,N,02100.56934,E,AA,13,1.29,114.7,34.2,,*6F
$GNGSA,A,3,08,20,21,27,15,10,,,,,,,2.08,1.29,1.63*11
$GNGSA,A,3,68,83,66,82,67,74,73,,,,,,2.08,1.29,1.63*11
$GPGSV,3,1,09,07,00,295,,08,46,300,30,10,70,138,44,15,15,040,23*78
$GPGSV,3,2,09,20,57,075,48,21,31,084,42,26,06,190,18,27,80,240,52*7B
$GPGSV,3,3,09,30,04,323,*45
$GLGSV,3,1,10,66,24,031,25,67,58,091,48,68,30,167,18,73,20,269,33*62
$GLGSV,3,2,10,74,25,317,40,75,03,006,,81,04,108,18,82,51,092,49*62
$GLGSV,3,3,10,83,66,328,34,84,12,296,21*60
$GNGLL,5213.19678,N,02100.56934,E,151413.00,A,A*7E
$GNGST,151413.00,27,,,,2.5,0.95,3.3*74
$GNZDA,151413.00,15,06,2019,00,00*73
$GNRMC,151414.00,A,5213.19672,N,02100.56931,E,0.075,,150619,,,A*67
$GNVTG,,T,,M,0.075,N,0.139,K,A*34
$GNGNS,151414.00,5213.19672,N,02100.56931,E,AA,13,1.29,114.6,34.2,,*66
$GNGSA,A,3,08,20,21,27,15,10,,,,,,,2.08,1.29,1.63*11
$GLGSV,3,1,10,66,24,031,25,67,58,091,48,68,30,167,20,73,20,269,33*69
$GLGSV,3,2,10,74,25,317,40,75,03,006,,81,04,108,18,82,51,092,49*62
$GLGSV,3,3,10,83,66,328,34,84,12,296,21*60
$GNGLL,5213.19672,N,02100.56931,E,151414.00,A,A*76
$GNGST,151414.00,26,,,,2.5,0.95,3.3*72
$GNZDA,151414.00,15,06,2019,00,00*74
µb
úEXT CORE 3.01 (db0c89)00080000ROM BASE 3.01 (107888)FWVER=HPG 1.40REFPROTVER=20.30MOD=NEO-M8P-2FIS=0xC22536 (100111)GPS;GLO;BDSQZSSØÛ$GNRMC,151415.00,A,5213.19666,N,02100.56927,E,0.046,,150619,,,A*64
$GNVTG,,T,,M,0.046,N,0.084,K,A*33
$GNGNS,151415.00,5213.19666,N,02100.56927,E,AA,13,1.29,114.5,34.2,,*66
$GNGSA,A,3,08,20,21,27,15,10,,,,,,,2.08,1.29,1.63*11
$GNGSA,A,3,68,83,66,82,67,74,73,,,,,,2.08,1.29,1.63*11
$GPGSV,3,1,09,07,00,295,,08,46,300,30,10,70,138,44,15,15,040,15*7D
$GPGSV,3,2,09,20,57,074,49,21,31,084,42,26,06,190,19,27,80,240,52*7A
$GPGSV,3,3,09,30,04,323,*45
$GLGSV,3,1,10,66,24,031,25,67,58,091,48,68,30,167,20,73,20,269,33*69
$GLGSV,3,2,10,74,25,317,40,75,03,006,,81,04,108,18,82,51,092,49*62
$GLGSV,3,3,10,83,66,328,35,84,12,296,22*62
$GNGLL,5213.19666,N,02100.56927,E,151415.00,A,A*75
$GNGST,151415.00,26,,,,2.5,0.94,3.2*73
$GNZDA,151415.00,15,06,2019,00,00*75
$GNRMC,151416.00,A,5213.19659,N,02100.56923,E,0.070,,150619,,,A*6A
$GNVTG,,T,,M,0.070,N,0.130,K,A*38
$GNGNS,151416.00,5213.19659,N,02100.56923,E,AA,13,1.29,114.4,34.2,,*6C
$GNGSA,A,3,08,20,21,27,15,10,,,,,,,2.08,1.29,1.63*11
$GNGSA,A,3,68,83,66,82,67,74,73,,,,,,2.08,1.29,1.63*11
$GPGSV,3,1,09,07,00,295,,08,46,300,30,10,70,138,44,15,15,040,08*71
$GPGSV,3,2,09,20,57,074,49,21,31,084,42,26,06,190,19,27,80,240,52*7A
$GPGSV,3,3,09,30,04,323,*45
$GLGSV,3,1,10,66,24,031,23,67,58,091,48,68,30,167,21,73,20,269,33*6E
$GLGSV,3,2,10,74,25,317,40,75,03,006,,81,04,108,16,82,51,092,49*6C
$GLGSV,3,3,10,83,66,328,35,84,12,296,21*61
$GNGLL,5213.19659,N,02100.56923,E,151416.00,A,A*7E
$GNGST,151416.00,27,,,,2.5,0.94,3.2*71
$GNZDA,151416.00,15,06,2019,00,00*76
$GNRMC,151417.00,A,5213.19653,N,02100.56921,E,0.001,,150619,,,A*65
$GNVTG,,T,,M,0.001,N,0.001,K,A*3D
$GNGNS,151417.00,5213.19653,N,02100.56921,E,AA,13,1.29,114.3,34.2,,*62
$GNGSA,A,3,08,20,21,27,15,10,,,,,,,2.08,1.29,1.63*11
$GNGSA,A,3,68,83,66,82,67,74,73,,,,,,2.08,1.29,1.63*11
$GPGSV,3,1,09,07,00,295,,08,46,300,29,10,70,138,43,15,15,040,09*7F
$GPGSV,3,2,09,20,57,074,49,21,31,084,42,26,06,190,19,27,80,238,52*75
$GPGSV,3,3,09,30,04,323,*45
$GLGSV,3,1,10,66,24,031,22,67,58,091,48,68,30,167,21,73,20,269,33*6F
$GLGSV,3,2,10,74,25,317,40,75,03,006,,81,04,108,16,82,51,092,49*6C
$GLGSV,3,3,10,83,66,328,35,84,12,296,20*60
$GNGLL,5213.19653,N,02100.56921,E,151417.00,A,A*77
$GNGST,151417.00,32,,,,2.5,0.94,3.2*74
$GNZDA,151417.00,15,06,2019,00,00*77
$GNRMC,151418.00,A,5213.19649,N,02100.56920,E,0.036,,150619,,,A*64
$GNVTG,,T,,M,0.036,N,0.066,K,A*38
$GNGNS,151418.00,5213.19649,N,02100.56920,E,AA,13,1.29,114.3,34.2,,*67
$GNGSA,A,3,08,20,21,27,15,10,,,,,,,2.08,1.29,1.63*11
$GNGSA,A,3,68,83,66,82,67,74,73,,,,,,2.08,1.29,1.63*11
$GPGSV,3,1,09,07,00,295,,08,46,300,28,10,70,138,43,15,15,040,16*70
$GPGSV,3,2,09,20,57,074,49,21,31,084,42,26,06,190,19,27,80,238,52*75
$GPGSV,3,3,09,30,04,323,*45
$GLGSV,3,1,10,66,24,031,20,67,58,091,48,68,30,167,21,73,20,269,34*6A
$GLGSV,3,2,10,74,25,317,40,75,03,006,,81,04,108,14,82,51,092,49*6E
$GLGSV,3,3,10,83,66,328,35,84,12,296,20*60
$GNGLL,5213.19649,N,02100.56920,E,151418.00,A,A*72
$GNGST,151418.00,34,,,,2.5,0.94,3.2*7D
$GNZDA,151418.00,15,06,2019,00,00*78
$GNRMC,151419.00,A,5213.19648,N,02100.56919,E,0.036,,150619,,,A*6E
$GNVTG,,T,,M,0.036,N,0.066,K,A*38
$GNGNS,151419.00,5213.19648,N,02100.56919,E,AA,13,1.25,114.3,34.2,,*61
$GNGSA,A,3,08,20,21,27,15,10,,,,,,,1.98,1.25,1.54*13
$GNGSA,A,3,68,83,66,82,67,74,73,,,,,,1.98,1.25,1.54*13
$GNGLL,5213.19648,N,02100.56919,E,151419.00,A,A*78
$GNGST,151419.00,3434011,,,,2.5,0.94,3.2*4B
$GNZDA,151419.00,15,06,2019,00,00*79
µb
úEXT CORE 3.01 (db0c89)00080000ROM BASE 3.01 (107888)FWVER=HPG 1.40REFPROTVER=20.30MOD=NEO-M8P-2FIS=0xC22536 (100111)GPS;GLO;BDSQZSSØÛ$GNRMC,151420.00,A,5213.19648,N,02100.56918,E,0.040,,150619,,,A*64
$GNVTG,,T,,M,0.040,N,0.073,K,A*3D
$GPGSV,3,2,09,20,57,074,49,21,31,084,44,26,06,190,19,27,80,238,52*73
$GPGSV,3,3,09,30,04,322,*44
$GLGSV,3,1,10,66,24,031,20,67,58,091,48,68,30,167,21,73,20,269,35*6B
$GLGSV,3,2,10,74,25,317,39,75,03,006,,81,04,108,10,82,51,092,49*64
$GLGSV,3,3,10,83,66,328,35,84,12,296,21*61
$GNGLL,5213.19648,N,02100.56918,E,151420.00,A,A*73
$GNGST,151420.00,40,,,,2.5,0.94,3.2*75
$GNZDA,151420.00,15,06,2019,00,00*73
µb
úEXT CORE 3.01 (db0c89)00080000ROM BASE 3.01 (107888)FWVER=HPG 1.40REFPROTVER=20.30MOD=NEO-M8P-2FIS=0xC22536 (100111)GPS;GLO;BDSQZSSØÛ$GNRMC,151421.00,A,5213.19645,N,02100.56918,E,0.007,,150619,,,A*6B
$GNVTG,,T,,M,0.007,N,0.013,K,A*38
$GNGNS,151421.00,5213.19645,N,02100.56918,E,AA,13,1.25,114.4,34.2,,*61
$GNGSA,A,3,08,20,21,27,15,10,,,,,,,1.98,1.25,1.54*13
$GNGSA,A,3,68,83,66,82,67,74,73,,,,,,1.98,1.25,1.54*13
$GPGSV,3,1,09,07,00,295,,08,46,300,28,10,70,138,43,15,15,040,23*76
$GPGSV,3,2,09,20,57,074,49,21,31,084,43,26,06,190,20,27,80,238,52*7E
$GPGSV,3,3,09,30,04,322,*44
$GLGSV,3,1,10,66,24,031,18,67,58,091,48,68,30,167,21,73,20,269,35*60
$GLGSV,3,2,10,74,25,317,39,75,03,006,,81,04,108,09,82,51,092,49*6C
$GLGSV,3,3,10,83,66,328,35,84,12,296,23*63
$GNGLL,5213.19645,N,02100.56918,E,151421.00,A,A*7F
$GNGST,151421.00,41,,,,2.5,0.94,3.2*75
$GNZDA,151421.00,15,06,2019,00,00*72
$GNRMC,151422.00,A,5213.19640,N,02100.56919,E,0.034,,150619,,,A*6C
$GNVTG,,T,,M,0.034,N,0.062,K,A*3E
$GNGNS,151422.00,5213.19640,N,02100.56919,E,AA,13,1.25,114.5,34.2,,*67
$GNGSA,A,3,08,20,21,27,15,10,,,,,,,1.98,1.25,1.54*13
$GNGSA,A,3,68,83,66,82,67,74,73,,,,,,1.98,1.25,1.54*13
$GPGSV,3,1,09,07,00,295,,08,46,300,27,10,70,138,43,15,15,040,24*7E
$GPGSV,3,2,09,20,57,074,49,21,31,084,43,26,06,190,20,27,80,238,52*7E
$GPGSV,3,3,09,30,04,322,*44
$GLGSV,3,1,10,66,24,031,18,67,58,091,48,68,30,167,20,73,20,269,36*62
$GLGSV,3,2,10,74,25,317,39,75,03,006,,81,04,108,,82,51,092,49*65
$GLGSV,3,3,10,83,66,328,35,84,12,296,23*63
$GNGLL,5213.19640,N,02100.56919,E,151422.00,A,A*78
$GNGST,151422.00,40,,,,2.5,0.93,3.1*73
$GNZDA,151422.00,15,06,2019,00,00*71
$GNRMC,151423.00,A,5213.19637,N,02100.56921,E,0.031,,150619,,,A*63
$GNVTG,,T,,M,0.031,N,0.058,K,A*32
$GNGNS,151423.00,5213.19637,N,02100.56921,E,AA,13,1.25,114.6,34.2,,*6E
$GNGSA,A,3,08,20,21,27,15,10,,,,,,,1.98,1.25,1.54*13
$GNGSA,A,3,68,83,66,82,67,74,73,,,,,,1.98,1.25,1.54*13
$GPGSV,3,1,09,07,00,295,,08,46,300,26,10,70,138,43,15,15,040,26*7D
$GPGSV,3,2,09,20,57,074,48,21,31,084,43,26,06,190,20,27,80,238,52*7F
$GPGSV,3,3,09,30,04,322,*44
$GLGSV,3,1,10,66,24,031,17,67,58,091,48,68,30,167,20,73,20,269,36*6D
$GLGSV,3,2,10,74,25,317,39,75,03,006,,81,04,108,,82,51,092,49*65
$GLGSV,3,3,10,83,66,328,35,84,12,296,24*64
$GNGLL,5213.19637,N,02100.56921,E,151423.00,A,A*72
$GNGST,151423.00,41,,,,2.5,0.93,3.1*73
$GNZDA,151423.00,15,06,2019,00,00*70
$GNRMC,151424.00,A,5213.19635,N,02100.56923,E,0.108,,150619,,,A*6F
$GNVTG,,T,,M,0.108,N,0.200,K,A*36
$GNGNS,151424.00,5213.19635,N,02100.56923,E,AA,13,1.25,114.7,34.2,,*68
$GNGSA,A,3,08,20,21,27,15,10,,,,,,,1.98,1.25,1.54*13
$GNGSA,A,3,68,83,66,82,67,74,73,,,,,,1.98,1.25,1.54*13
$GPGSV,3,1,09,07,00,295,,08,46,300,26,10,70,138,43,15,15,040,27*7C
$GPGSV,3,2,09,20,57,074,48,21,31,084,44,26,06,190,20,27,80,238,51*7B
$GPGSV,3,3,09,30,04,322,*44
$GLGSV,3,1,10,66,24,031,18,67,58,091,48,68,30,167,22,73,20,269,36*60
$GLGSV,3,2,10,74,25,317,39,75,03,006,,81,04,108,,82,51,092,49*65
$GLGSV,3,3,10,83,66,328,35,84,12,296,25*65
$GNGLL,5213.19635,N,02100.56923,E,151424.00,A,A*75
$GNGST,151424.00,38,,,,2.5,0.93,3.1*7A
$GNZDA,151424.00,15,06,2019,00,00*77
$GNRMC,151425.00,A,5213.19633,N,02100.56925,E,0.041,,150619,,,A*62
$GNVTG,,T,,M,0.041,N,0.076,K,A*39
$GNGNS,151425.00,5213.19633,N,02100.56925,E,AA,13,1.25,114.9,34.2,,*67
$GNGSA,A,3,08,20,21,27,15,10,,,,,,,1.98,1.25,1.54*13
$GNGSA,A,3,68,83,66,82,67,74,73,,,,,,1.98,1.25,1.54*13
$GPGSV,3,1,09,07,00,295,,08,46,300,25,10,70,138,42,15,15,040,30*78
$GPGSV,3,2,09,20,57,074,49,21,31,084,43,26,06,190,19,27,80,238,51*77
$GPGSV,3,3,09,30,04,322,*44
$GLGSV,3,1,10,66,24,031,21,67,58,091,48,68,30,167,23,73,20,269,36*6B
$GLGSV,3,2,10,74,25,317,39,75,03,006,,81,04,108,,82,51,092,49*65
$GLGSV,3,3,10,83,66,328,35,84,12,296,25*65
$GNGLL,5213.19633,N,02100.56925,E,151425.00,A,A*74
$GNGST,151425.00,33,,,,2.5,0.93,3.1*70
$GNZDA,151425.00,15,06,2019,00,00*76
$GNRMC,151426.00,A,5213.19629,N,02100.56927,E,0.013,,150619,,,A*6F
$GNVTG,,T,,M,0.013,N,0.024,K,A*39
$GNGNS,151426.00,5213.19629,N,02100.56927,E,AA,13,1.25,115.0,34.2,,*65
$GNGSA,A,3,08,20,21,27,15,10,,,,,,,1.98,1.25,1.54*13
$GNGSA,A,3,68,83,66,82,67,74,73,,,,,,1.98,1.25,1.54*13
$GPGSV,3,1,09,07,00,295,,08,46,300,25,10,70,138,43,15,15,040,30*79
$GPGSV,3,2,09,20,57,074,49,21,31,084,43,26,06,190,19,27,80,238,51*77
$GPGSV,3,3,09,30,04,322,*44
$GLGSV,3,1,10,66,24,031,23,67,58,091,48,68,30,167,25,73,20,269,36*6F
$GLGSV,3,2,10,74,25,317,38,75,03,006,,81,04,108,,82,51,092,49*64
$GLGSV,3,3,10,83,66,328,35,84,12,296,25*65
$GNGLL,5213.19629,N,02100.56927,E,151426.00,A,A*7E
$GNGST,151426.00,32,,,,2.5,0.92,3.1*73
$GNZDA,151426.00,15,06,2019,00,00*75
$GNRMC,151427.00,A,5213.19627,N,02100.56929,E,0.008,,150619,,,A*64
$GNVTG,,T,,M,0.008,N,0.014,K,A*30
$GNGNS,151427.00,5213.19627,N,02100.56929,E,AA,13,1.25,115.2,34.2,,*66
$GNGSA,A,3,08,20,21,27,15,10,,,,,,,1.98,1.25,1.54*13
$GNGSA,A,3,68,83,66,82,67,74,73,,,,,,1.98,1.25,1.54*13
$GPGSV,3,1,09,07,00,295,,08,46,300,24,10,70,138,43,15,15,040,29*70
$GPGSV,3,2,09,20,57,074,49,21,31,084,44,26,06,190,19,27,80,238,51*70
$GPGSV,3,3,09,30,04,322,*44
$GLGSV,3,1,10,66,24,031,22,67,58,091,48,68,31,167,26,73,20,269,36*6C
$GLGSV,3,2,10,74,25,317,38,75,03,006,,81,04,108,,82,51,092,49*64
$GLGSV,3,3,10,83,66,328,35,84,12,296,25*65
$GNGLL,5213.19627,N,02100.56929,E,151427.00,A,A*7F
$GNGST,151427.00,33,,,,2.5,0.92,3.0*72
$GNZDA,151427.00,15,06,2019,00,00*74
$GNRMC,151428.00,A,5213.19631,N,02100.56931,E,0.004,,150619,,,A*69
$GNVTG,,T,,M,0.004,N,0.008,K,A*31
$GNGNS,151428.00,5213.19631,N,02100.56931,E,AA,13,0.86,115.4,34.2,,*69
$GNGSA,A,3,08,20,21,27,15,10,,,,,,,1.51,0.86,1.24*19
$GNGSA,A,3,68,83,66,82,67,74,73,,,,,,1.51,0.86,1.24*19
$GPGSV,3,1,09,07,00,295,,08,46,300,23,10,70,138,43,15,15,040,29*77
$GPGSV,3,2,09,20,57,074,49,21,31,084,44,26,06,190,19,27,80,238,52*73
$GPGSV,3,3,09,30,04,322,*44
$GLGSV,3,1,10,66,24,031,22,67,58,091,48,68,31,167,28,73,20,269,36*62
$GLGSV,3,2,10,74,25,317,38,75,03,006,,81,04,108,,82,51,092,49*64
$GLGSV,3,3,10,83,66,328,35,84,12,296,26*66
$GNGLL,5213.19631,N,02100.56931,E,151428.00,A,A*7E
$GNGST,151428.00,41,,,,2.5,0.92,3.0*78
$GNZDA,151428.00,15,06,2019,00,00*7B
$GNRMC,151429.00,A,5213.19630,N,02100.56932,E,0.021,,150619,,,A*6D
$GNVTG,,T,,M,0.021,N,0.039,K,A*34
$GNGNS,151429.00,5213.19630,N,02100.56932,E,AA,13,1.24,115.5,34.2,,*62
$GNGSA,A,3,08,20,21,27,15,10,,,,,,,1.98,1.24,1.54*12
$GNGSA,A,3,68,83,66,82,67,74,73,,,,,,1.98,1.24,1.54*12
$GPGSV,3,1,09,07,00,295,,08,46,300,25,10,70,138,43,15,15,040,28*70
$GPGSV,3,2,09,20,57,074,49,21,31,084,43,26,06,190,20,27,80,238,51*7D
$GPGSV,3,3,09,30,04,322,*44
$GLGSV,3,1,10,66,24,031,22,67,58,091,48,68,31,167,28,73,20,269,35*61
$GLGSV,3,2,10,74,25,317,37,75,03,006,,81,04,108,,82,51,092,49*6B
$GLGSV,3,3,10,83,66,328,35,84,12,296,26*66
$GNGLL,5213.19630,N,02100.56932,E,151429.00,A,A*7D
$GNGST,151429.00,36,,,,2.5,0.93,3.0*78
$GNZDA,151429.00,15,06,2019,00,00*7A
$GNRMC,151430.00,A,5213.19634,N,02100.56934,E,0.014,,150619,,,A*61
$GNVTG,,T,,M,0.014,N,0.026,K,A*3C
$GNGNS,151430.00,5213.19634,N,02100.56934,E,AA,13,0.86,115.7,34.2,,*63
$GNGSA,A,3,08,20,21,27,15,10,,,,,,,1.51,0.86,1.24*19
$GNGSA,A,3,68,83,66,82,67,74,73,,,,,,1.51,0.86,1.24*19
$GPGSV,3,1,09,07,00,295,,08,46,300,26,10,70,138,43,15,15,040,28*73
$GPGSV,3,2,09,20,57,074,49,21,31,084,43,26,06,190,20,27,80,238,51*7D
$GPGSV,3,3,09,30,04,322,*44
$GLGSV,3,1,10,66,24,031,22,67,58,091,48,68,31,167,28,73,20,269,35*61
$GLGSV,3,2,10,74,25,317,37,75,03,006,,81,04,108,,82,51,092,49*6B
$GLGSV,3,3,10,83,66,328,35,84,12,296,26*66
$GNGLL,5213.19634,N,02100.56934,E,151430.00,A,A*77
$GNGST,151430.00,41,,,,2.5,0.93,3.0*70
$GNZDA,151430.00,15,06,2019,00,00*72
$GNRMC,151431.00,A,5213.19634,N,02100.56935,E,0.017,,150619,,,A*62
$GNVTG,,T,,M,0.017,N,0.031,K,A*39
$GNGNS,151431.00,5213.19634,N,02100.56935,E,AA,13,1.24,115.8,34.2,,*65
$GNGSA,A,3,08,20,21,27,15,10,,,,,,,1.98,1.24,1.54*12
$GNGSA,A,3,68,83,66,82,67,74,73,,,,,,1.98,1.24,1.54*12
$GPGSV,3,1,09,07,00,295,,08,46,300,26,10,70,138,43,15,15,040,28*73
$GPGSV,3,2,09,20,57,074,49,21,31,084,43,26,06,190,19,27,80,238,51*77
$GPGSV,3,3,09,30,04,322,*44
$GLGSV,3,1,10,66,24,031,23,67,58,091,48,68,31,167,29,73,20,269,35*61
$GLGSV,3,2,10,74,25,317,37,75,03,006,,81,04,108,,82,51,092,49*6B
$GLGSV,3,3,10,83,66,328,36,84,12,296,26*65
$GNGLL,5213.19634,N,02100.56935,E,151431.00,A,A*77
$GNGST,151431.00,35,,,,2.5,0.93,3.0*72
$GNZDA,151431.00,15,06,2019,00,00*73
$GNRMC,151432.00,A,5213.19634,N,02100.56936,E,0.031,,150619,,,A*66
$GNVTG,,T,,M,0.031,N,0.057,K,A*3D
$GNGNS,151432.00,5213.19634,N,02100.56936,E,AA,13,1.24,115.9,34.2,,*64
$GNGSA,A,3,08,20,21,27,15,10,,,,,,,1.98,1.24,1.54*12
$GNGSA,A,3,68,83,66,82,67,74,73,,,,,,1.98,1.24,1.54*12
$GPGSV,3,1,09,07,00,295,,08,46,300,27,10,70,138,43,15,15,040,29*73
$GPGSV,3,2,09,20,57,074,49,21,31,084,43,26,06,190,18,27,80,238,51*76
$GPGSV,3,3,09,30,04,322,*44
$GLGSV,3,1,10,66,24,031,24,67,58,091,48,68,31,167,29,73,20,268,34*66
$GLGSV,3,2,10,74,25,317,38,75,03,006,,81,04,108,,82,51,092,49*64
$GLGSV,3,3,10,83,66,328,36,84,12,296,27*64
$GNGLL,5213.19634,N,02100.56936,E,151432.00,A,A*77
$GNGST,151432.00,31,,,,2.5,0.93,3.0*75
$GNZDA,151432.00,15,06,2019,00,00*70
$GNVTG,,T,,M,0.090,N,0.167,K,A*34
$GNGNS,151433.00,5213.19633,N,02100.56936,E,AA,13,1.24,115.9,34.2,,*62
$GNGSA,A,3,08,20,21,27,15,10,,,,,,,1.98,1.24,1.53*15
$GNGSA,A,3,68,83,66,82,67,74,73,,,,,,1.98,1.24,1.53*15
$GPGSV,3,1,10,07,00,295,,08,46,300,27,10,70,138,43,15,15,040,30*73
$GPGSV,3,2,10,18,,,28,20,57,074,49,21,31,084,43,26,06,190,17*42
$GPGSV,3,3,10,27,80,238,51,30,04,322,*7C
$GLGSV,3,1,10,66,24,031,25,67,58,091,48,68,31,167,30,73,20,268,34*6F
$GLGSV,3,2,10,74,25,316,38,75,03,006,,81,04,108,,82,51,092,49*65
$GLGSV,3,3,10,83,66,328,36,84,12,296,27*64
$GNGLL,5213.19633,N,02100.56936,E,151433.00,A,A*71
$GNGST,151433.00,30,,,,2.5,0.93,3.0*75
$GNZDA,151433.00,15,06,2019,00,00*71
µb
úEXT CORE 3.01 (db0c89)00080000ROM BASE 3.01 (107888)FWVER=HPG 1.40REFPROTVER=20.30MOD=NEO-M8P-2FIS=0xC22536 (100111)GPS;GLO;BDSQZSSØÛ$GNRMC,151434.00,A,5213.19632,N,02100.56937,E,0.045,,150619,,,A*64
$GNVTG,,T,,M,0.045,N,0.083,K,A*37
$GNGNS,151434.00,5213.19632,N,02100.56937,E,AA,13,1.36,116.0,34.2,,*6C
$GNGSA,A,3,08,20,21,27,15,10,,,,,,,2.05,1.36,1.53*11
$GNGSA,A,3,68,83,66,82,67,74,73,,,,,,2.05,1.36,1.53*11
$GPGSV,3,1,10,07,00,295,,08,46,300,29,10,70,138,44,15,15,040,31*7B
$GPGSV,3,2,10,18,,,32,20,57,074,49,21,31,084,43,26,06,190,17*49
$GPGSV,3,3,10,27,80,238,51,30,04,322,*7C
$GLGSV,3,1,10,66,24,031,25,67,58,091,48,68,31,167,30,73,20,268,33*68
$GLGSV,3,2,10,74,25,316,38,75,04,005,,81,04,108,,82,51,092,49*61
$GLGSV,3,3,10,83,66,328,36,84,12,296,27*64
$GNGLL,5213.19632,N,02100.56937,E,151434.00,A,A*76
$GNGST,151434.00,18,,,,2.5,0.93,3.0*78
$GNZDA,151434.00,15,06,2019,00,00*76
$GNRMC,151435.00,A,5213.19630,N,02100.56938,E,0.057,,150619,,,A*6B
$GNVTG,,T,,M,0.057,N,0.105,K,A*3B
$GNGNS,151435.00,5213.19630,N,02100.56938,E,AA,13,1.36,116.1,34.2,,*61
$GNGSA,A,3,08,20,21,27,15,10,,,,,,,2.05,1.36,1.53*11
$GNGSA,A,3,68,83,66,82,67,74,73,,,,,,2.05,1.36,1.53*11
$GLGSV,3,3,10,83,66,328,36,84,12,296,27*64
$GNGLL,5213.19630,N,02100.56938,E,151435.00,A,A*7A
$GNGST,151435.00,18,,,,2.5,0.93,3.1*78
$GNZDA,151435.00,15,06,2019,00,00*77
$GNRMC,151436.00,A,5213.19633,N,02100.56939,E,0.024,,150619,,,A*6E
$GNVTG,,T,,M,0.024,N,0.045,K,A*3A
$GNGNS,151436.00,5213.19633,N,02100.56939,E,AA,13,0.92,116.2,34.2,,*6C
$GNGSA,A,3,08,20,21,27,15,10,,,,,,,1.56,0.92,1.26*19
$GNGSA,A,3,68,83,66,82,67,74,73,,,,,,1.56,0.92,1.26*19
$GPGSV,3,1,10,07,00,295,,08,46,300,28,10,70,138,43,15,15,040,31*7D
$GPGSV,3,2,10,18,,,32,20,57,074,49,21,31,084,42,26,06,190,16*49
$GPGSV,3,3,10,27,80,238,51,30,04,322,*7C
$GLGSV,3,1,10,66,24,031,25,67,58,091,48,68,31,167,29,73,20,268,33*60
$GLGSV,3,2,10,74,25,316,38,75,04,005,,81,04,108,,82,51,092,49*61
$GLGSV,3,3,10,83,66,328,36,84,12,296,28*6B
$GNGLL,5213.19633,N,02100.56939,E,151436.00,A,A*7B
$GNGST,151436.00,29,,,,2.5,0.93,3.1*79
$GNZDA,151436.00,15,06,2019,00,00*74
$GNRMC,151437.00,A,5213.19628,N,02100.56939,E,0.024,,150619,,,A*65
$GNVTG,,T,,M,0.024,N,0.044,K,A*3B
$GNGNS,151437.00,5213.19628,N,02100.56939,E,AA,13,1.36,116.1,34.2,,*6B
$GNGSA,A,3,08,20,21,27,15,10,,,,,,,2.05,1.36,1.53*11
$GNGSA,A,3,68,83,66,82,67,74,73,,,,,,2.05,1.36,1.53*11
$GPGSV,3,1,11,07,00,295,,08,46,300,29,10,70,138,43,15,15,040,32*7E
$GPGSV,3,2,11,18,,,32,20,57,074,49,21,31,084,43,26,06,190,15*4A
$GPGSV,3,3,11,27,80,238,51,30,04,322,,32,06,151,*4F
$GLGSV,3,1,10,66,24,031,25,67,58,091,48,68,31,167,29,73,20,268,32*61
$GLGSV,3,2,10,74,25,316,38,75,04,005,,81,04,108,,82,51,092,49*61
$GLGSV,3,3,10,83,66,328,36,84,12,296,28*6B
$GNGLL,5213.19628,N,02100.56939,E,151437.00,A,A*70
$GNGST,151437.00,18,,,,2.5,0.94,3.1*7D
$GNZDA,151437.00,15,06,2019,00,00*75
$GNRMC,151438.00,A,5213.19628,N,02100.56941,E,0.011,,150619,,,A*63
$GNVTG,,T,,M,0.011,N,0.020,K,A*3F
$GNGNS,151438.00,5213.19628,N,02100.56941,E,AA,13,0.92,116.2,34.2,,*67
$GNGSA,A,3,08,20,21,27,15,10,,,,,,,1.56,0.92,1.26*19
$GNGSA,A,3,68,83,66,82,67,74,73,,,,,,1.56,0.92,1.26*19
$GPGSV,3,1,11,07,00,295,,08,46,300,30,10,70,138,43,15,15,040,32*76
$GPGSV,3,2,11,18,,,31,20,57,074,49,21,31,084,42,26,06,190,16*4B
$GPGSV,3,3,11,27,80,238,51,30,04,322,,32,06,151,*4F
$GLGSV,3,1,10,66,24,031,25,67,58,091,48,68,31,167,29,73,20,268,32*61
$GLGSV,3,2,10,74,25,316,38,75,04,005,,81,04,108,,82,51,092,49*61
$GLGSV,3,3,10,83,66,328,37,84,12,296,28*6A
$GNGLL,5213.19628,N,02100.56941,E,151438.00,A,A*70
$GNGST,151438.00,24,,,,2.5,0.94,3.1*7D
$GNZDA,151438.00,15,06,2019,00,00*7A
$GNRMC,151439.00,A,5213.19629,N,02100.56943,E,0.002,,150619,,,A*63
$GNVTG,,T,,M,0.002,N,0.004,K,A*3B
$GNGNS,151439.00,5213.19629,N,02100.56943,E,AA,13,0.92,116.3,34.2,,*64
$GNGSA,A,3,08,20,21,27,15,10,,,,,,,1.56,0.92,1.26*19
$GNGSA,A,3,68,83,66,82,67,74,73,,,,,,1.56,0.92,1.26*19
$GPGSV,3,1,11,07,00,295,,08,46,300,31,10,70,138,43,15,15,040,32*77
$GPGSV,3,2,11,18,,,32,20,57,074,49,21,31,084,42,26,06,190,17*49
$GPGSV,3,3,11,27,80,238,51,30,04,322,,32,06,151,27*4A
$GLGSV,3,1,10,66,24,031,25,67,58,091,48,68,31,167,29,73,20,268,32*61
$GLGSV,3,2,10,74,25,316,38,75,04,005,,81,04,108,,82,51,092,49*61
$GLGSV,3,3,10,83,66,328,37,84,12,296,28*6A
$GNGLL,5213.19629,N,02100.56943,E,151439.00,A,A*72
$GNGST,151439.00,22,,,,2.5,0.94,3.1*7A
$GNZDA,151439.00,15,06,2019,00,00*7B
$GNRMC,151440.00,A,5213.19622,N,02100.56944,E,0.004,,150619,,,A*67
$GNVTG,,T,,M,0.004,N,0.007,K,A*3E
$GNGNS,151440.00,5213.19622,N,02100.56944,E,AA,13,1.24,116.3,34.2,,*6A
$GNGSA,A,3,08,20,21,27,15,10,,,,,,,1.97,1.24,1.53*1A
$GNGSA,A,3,68,83,66,82,67,74,73,,,,,,1.97,1.24,1.53*1A
$GPGSV,3,1,11,07,00,295,,08,46,300,32,10,70,138,43,15,15,040,33*75
$GPGSV,3,2,11,18,,,32,20,57,074,49,21,31,084,41,26,06,190,15*48
$GPGSV,3,3,11,27,80,238,51,30,04,322,,32,06,151,27*4A
$GLGSV,3,1,10,66,24,031,26,67,58,091,48,68,31,167,30,73,20,268,32*6A
$GLGSV,3,2,10,74,25,316,38,75,04,005,,81,04,108,,82,51,092,49*61
$GLGSV,3,3,10,83,66,328,37,84,12,296,28*6A
$GNGLL,5213.19622,N,02100.56944,E,151440.00,A,A*70
$GNGST,151440.00,24,,,,2.6,0.95,3.1*70
$GNZDA,151440.00,15,06,2019,00,00*75
$GNRMC,151441.00,A,5213.19620,N,02100.56946,E,0.015,,150619,,,A*66
$GNVTG,,T,,M,0.015,N,0.028,K,A*33
$GNGNS,151441.00,5213.19620,N,02100.56946,E,AA,13,0.86,116.3,34.2,,*62
$GNGSA,A,3,08,20,21,27,15,10,,,,,,,1.51,0.86,1.24*19
$GNGSA,A,3,68,83,66,82,67,74,73,,,,,,1.51,0.86,1.24*19
$GPGSV,3,1,11,07,00,295,,08,46,300,32,10,70,138,43,15,15,040,33*75
$GPGSV,3,2,11,18,,,32,20,57,074,49,21,31,084,41,26,06,190,14*49
$GPGSV,3,3,11,27,80,238,51,30,04,322,,32,06,151,26*4B
$GLGSV,3,1,10,66,24,031,27,67,58,091,48,68,31,167,31,73,20,268,32*6A
$GLGSV,3,2,10,74,25,316,39,75,04,005,,81,04,108,,82,51,092,49*60
$GLGSV,3,3,10,83,66,328,37,84,12,296,27*65
$GNGLL,5213.19620,N,02100.56946,E,151441.00,A,A*71
$GNGST,151441.00,28,,,,2.6,0.95,3.1*7D
$GNZDA,151441.00,15,06,2019,00,00*74
$GNRMC,151442.00,A,5213.19618,N,02100.56950,E,0.016,,150619,,,A*6A
$GNVTG,,T,,M,0.016,N,0.030,K,A*39
$GNGNS,151442.00,5213.19618,N,02100.56950,E,AA,13,0.86,116.4,34.2,,*6A
$GNGSA,A,3,08,20,21,27,15,10,,,,,,,1.51,0.86,1.24*19
$GNGSA,A,3,68,83,66,82,67,74,73,,,,,,1.51,0.86,1.24*19
$GPGSV,3,1,11,07,00,295,,08,46,300,35,10,70,138,43,15,15,040,33*72
$GPGSV,3,2,11,18,,,32,20,57,074,49,21,31,084,43,26,06,190,15*4A
$GPGSV,3,3,11,27,80,238,51,30,04,322,,32,06,151,26*4B
$GLGSV,3,1,10,66,24,031,28,67,58,091,48,68,31,167,32,73,20,268,32*66
$GLGSV,3,2,10,74,25,316,39,75,04,005,,81,04,108,,82,51,092,49*60
$GLGSV,3,3,10,83,66,329,37,84,12,296,27*64
$GNGLL,5213.19618,N,02100.56950,E,151442.00,A,A*7E
$GNGST,151442.00,25,,,,2.6,0.95,3.1*73
$GNZDA,151442.00,15,06,2019,00,00*77
$GNRMC,151443.00,A,5213.19609,N,02100.56952,E,0.087,,150619,,,A*61
$GNVTG,,T,,M,0.087,N,0.161,K,A*34
$GNGNS,151443.00,5213.19609,N,02100.56952,E,AA,13,1.24,116.4,34.2,,*60
$GNGSA,A,3,08,20,21,27,15,10,,,,,,,1.97,1.24,1.53*1A
$GNGSA,A,3,68,83,66,82,67,74,73,,,,,,1.97,1.24,1.53*1A
$GPGSV,3,1,11,07,00,295,,08,46,300,35,10,70,138,43,15,15,040,33*72
$GLGSV,3,1,10,66,24,031,31,67,58,091,48,68,31,167,32,73,20,268,31*6D
$GLGSV,3,2,10,74,25,316,39,75,04,005,,81,04,108,,82,51,092,49*60
$GLGSV,3,3,10,83,66,329,37,84,13,296,26*64
$GNGLL,5213.19609,N,02100.56952,E,151443.00,A,A*7D
$GNGST,151443.00,17,,,,2.6,0.95,3.1*73
$GNZDA,151443.00,15,06,2019,00,00*76
µb
úEXT CORE 3.01 (db0c89)00080000ROM BASE 3.01 (107888)FWVER=HPG 1.40REFPROTVER=20.30MOD=NEO-M8P-2FIS=0xC22536 (100111)GPS;GLO;BDSQZSSØÛ$GNRMC,151444.00,A,5213.19603,N,02100.56954,E,0.030,,150619,,,A*66
$GNVTG,,T,,M,0.030,N,0.055,K,A*3E
$GNGNS,151444.00,5213.19603,N,02100.56954,E,AA,13,0.86,116.3,34.2,,*65
$GNGSA,A,3,08,20,21,27,15,10,,,,,,,1.51,0.86,1.24*19
$GNGSA,A,3,68,83,66,82,67,74,73,,,,,,1.51,0.86,1.24*19
$GPGSV,3,1,11,07,00,295,,08,46,300,36,10,70,138,43,15,15,040,33*71
$GPGSV,3,2,11,18,,,31,20,57,074,49,21,31,084,41,26,06,190,16*48
$GPGSV,3,3,11,27,80,238,51,30,04,322,,32,06,151,26*4B
$GLGSV,3,1,10,66,24,031,30,67,58,091,48,68,31,167,32,73,20,268,31*6C
$GLGSV,3,2,10,74,25,316,39,75,04,005,,81,04,108,,82,51,092,49*60
$GLGSV,3,3,10,83,66,329,37,84,13,296,27*65
$GNGLL,5213.19603,N,02100.56954,E,151444.00,A,A*76
$GNGST,151444.00,23,,,,2.6,0.95,3.1*73
$GNZDA,151444.00,15,06,2019,00,00*71
$GNRMC,151445.00,A,5213.19591,N,02100.56955,E,0.044,,150619,,,A*6D
$GNVTG,,T,,M,0.044,N,0.082,K,A*37
$GNGNS,151445.00,5213.19591,N,02100.56955,E,AA,13,1.24,116.2,34.2,,*65
$GNGSA,A,3,08,20,21,27,15,10,,,,,,,1.97,1.24,1.53*1A
$GNGSA,A,3,68,83,66,82,67,74,73,,,,,,1.97,1.24,1.53*1A
$GPGSV,3,1,11,07,00,295,,08,46,300,36,10,70,138,43,15,15,040,33*71
$GPGSV,3,2,11,18,,,32,20,57,074,49,21,31,084,41,26,06,190,15*48
$GPGSV,3,3,11,27,80,238,51,30,04,322,,32,06,151,26*4B
$GLGSV,3,1,10,66,24,031,31,67,58,091,48,68,31,167,32,73,20,268,30*6C
$GLGSV,3,2,10,74,25,316,39,75,04,005,,81,04,108,,82,51,092,49*60
$GLGSV,3,3,10,83,66,329,36,84,13,296,27*64
$GNGLL,5213.19591,N,02100.56955,E,151445.00,A,A*7E
$GNGST,151445.00,17,,,,2.6,0.96,3.1*76
$GNZDA,151445.00,15,06,2019,00,00*70
$GNRMC,151446.00,A,5213.19580,N,02100.56957,E,0.066,,150619,,,A*6C
$GNVTG,,T,,M,0.066,N,0.123,K,A*3D
$GNGNS,151446.00,5213.19580,N,02100.56957,E,AA,13,0.86,116.1,34.2,,*6E
$GNGSA,A,3,08,20,21,27,15,10,,,,,,,1.51,0.86,1.24*19
$GNGSA,A,3,68,83,66,82,67,74,73,,,,,,1.51,0.86,1.24*19
$GPGSV,3,1,11,07,00,295,,08,46,300,37,10,70,138,43,15,15,040,33*70
$GPGSV,3,2,11,18,,,32,20,57,074,49,21,31,084,41,26,06,190,14*49
$GPGSV,3,3,11,27,80,238,51,30,04,322,,32,06,151,26*4B
$GLGSV,3,1,10,66,24,031,32,67,58,091,48,68,31,167,32,73,20,268,30*6F
$GLGSV,3,2,10,74,25,316,39,75,04,005,,81,04,108,,82,51,092,49*60
$GLGSV,3,3,10,83,66,329,37,84,13,296,27*65
$GNGLL,5213.19580,N,02100.56957,E,151446.00,A,A*7F
$GNGST,151446.00,22,,,,2.6,0.96,3.1*73
$GNZDA,151446.00,15,06,2019,00,00*73
$GNRMC,151447.00,A,5213.19563,N,02100.56957,E,0.053,,150619,,,A*66
$GNVTG,,T,,M,0.053,N,0.098,K,A*3A
$GNGNS,151447.00,5213.19563,N,02100.56957,E,AA,13,1.24,115.8,34.2,,*61
$GNGSA,A,3,08,20,21,27,15,10,,,,,,,1.97,1.24,1.53*1A
$GNGSA,A,3,68,83,66,82,67,74,73,,,,,,1.97,1.24,1.53*1A
$GPGSV,3,1,11,07,00,295,,08,46,300,37,10,70,138,43,15,15,040,32*71
$GPGSV,3,2,11,18,,,32,20,57,074,49,21,31,084,41,26,06,190,*4C
$GPGSV,3,3,11,27,80,238,51,30,04,322,,32,06,151,26*4B
$GLGSV,3,1,10,66,24,031,32,67,58,091,48,68,31,167,33,73,20,268,30*6E
$GLGSV,3,2,10,74,25,316,38,75,04,005,19,81,04,108,,82,51,092,49*69
$GLGSV,3,3,10,83,66,329,36,84,13,296,27*64
$GNGLL,5213.19563,N,02100.56957,E,151447.00,A,A*73
$GNGST,151447.00,17,,,,2.6,0.96,3.1*74
$GNZDA,151447.00,15,06,2019,00,00*72
$GNRMC,151448.00,A,5213.19548,N,02100.56962,E,0.036,,150619,,,A*65
$GNVTG,,T,,M,0.036,N,0.067,K,A*39
$GNGNS,151448.00,5213.19548,N,02100.56962,E,AA,13,0.86,115.7,34.2,,*67
$GNGSA,A,3,08,20,21,27,15,10,,,,,,,1.51,0.86,1.24*19
$GNGSA,A,3,68,83,66,82,67,74,73,,,,,,1.51,0.86,1.24*19
$GPGSV,3,1,11,07,00,295,,08,46,300,38,10,70,138,42,15,15,040,32*7F
$GPGSV,3,2,11,18,,,32,20,57,074,49,21,31,084,41,26,06,190,*4C
$GPGSV,3,3,11,27,80,238,51,30,04,322,21,32,06,151,26*48
$GLGSV,3,1,10,66,24,031,33,67,58,091,48,68,31,167,32,73,20,268,30*6E
$GLGSV,3,2,10,74,25,316,38,75,04,005,,81,04,108,,82,51,092,49*61
$GLGSV,3,3,10,83,66,329,37,84,13,296,28*6A
$GNGLL,5213.19548,N,02100.56962,E,151448.00,A,A*73
$GNGST,151448.00,22,,,,2.5,0.96,3.1*7E
$GNZDA,151448.00,15,06,2019,00,00*7D
$GNRMC,151449.00,A,5213.19532,N,02100.56964,E,0.019,,150619,,,A*62
$GNVTG,,T,,M,0.019,N,0.036,K,A*30
$GNGNS,151449.00,5213.19532,N,02100.56964,E,AA,13,1.24,115.5,34.2,,*66
$GNGSA,A,3,08,20,21,27,15,10,,,,,,,1.97,1.24,1.53*1A
$GNGSA,A,3,68,83,66,82,67,74,73,,,,,,1.97,1.24,1.53*1A
$GPGSV,3,1,11,07,00,295,,08,46,300,37,10,70,138,42,15,15,040,32*70
$GPGSV,3,2,11,18,,,32,20,57,074,49,21,31,084,41,26,06,190,*4C
$GPGSV,3,3,11,27,80,238,51,30,04,322,21,32,06,151,25*4B
$GLGSV,3,1,10,66,24,031,33,67,58,091,48,68,31,167,33,73,20,268,30*6F
$GLGSV,3,2,10,74,25,316,38,75,04,005,,81,04,108,,82,51,092,49*61
$GLGSV,3,3,10,83,66,329,36,84,13,296,28*6B
$GNGLL,5213.19532,N,02100.56964,E,151449.00,A,A*79
$GNGST,151449.00,16,,,,2.5,0.96,3.1*78
$GNZDA,151449.00,15,06,2019,00,00*7C
$GNRMC,151450.00,A,5213.19522,N,02100.56967,E,0.013,,150619,,,A*62
$GNVTG,,T,,M,0.013,N,0.023,K,A*3E
$GNGNS,151450.00,5213.19522,N,02100.56967,E,AA,13,0.86,115.4,34.2,,*64
$GNGSA,A,3,08,20,21,27,15,10,,,,,,,1.51,0.86,1.24*19
$GNGSA,A,3,68,83,66,82,67,74,73,,,,,,1.51,0.86,1.24*19
$GLGSV,3,3,10,83,66,329,36,84,13,296,28*6B
$GNGLL,5213.19522,N,02100.56967,E,151450.00,A,A*73
$GNGST,151450.00,21,,,,2.5,0.96,3.1*74
$GNZDA,151450.00,15,06,2019,00,00*74
µb
úEXT CORE 3.01 (db0c89)00080000ROM BASE 3.01 (107888)FWVER=HPG 1.40REFPROTVER=20.30MOD=NEO-M8P-2FIS=0xC22536 (100111)GPS;GLO;BDSQZSSØÛ$GNRMC,151451.00,A,5213.19505,N,02100.56972,E,0.008,,150619,,,A*68
$GNVTG,,T,,M,0.008,N,0.015,K,A*31
$GNGNS,151451.00,5213.19505,N,02100.56972,E,AA,13,1.24,115.3,34.2,,*6A
$GNGSA,A,3,08,20,21,27,15,10,,,,,,,1.97,1.24,1.53*1A
$GNGSA,A,3,68,83,66,82,67,74,73,,,,,,1.97,1.24,1.53*1A
$GPGSV,3,1,11,07,00,295,,08,46,300,38,10,70,138,42,15,15,040,33*7E
$GPGSV,3,2,11,18,,,32,20,57,074,49,21,31,084,39,26,06,190,*43
$GPGSV,3,3,11,27,80,238,51,30,04,322,21,32,06,151,25*4B
$GLGSV,3,1,10,66,24,031,34,67,58,091,48,68,31,167,32,73,20,268,32*6B
$GLGSV,3,2,10,74,25,316,38,75,04,005,20,81,04,108,,82,51,092,49*63
$GLGSV,3,3,10,83,66,329,36,84,13,296,27*64
$GNGLL,5213.19505,N,02100.56972,E,151451.00,A,A*73
$GNGST,151451.00,14,,,,2.5,0.95,3.1*70
$GNZDA,151451.00,15,06,2019,00,00*75
$GNRMC,151452.00,A,5213.19499,N,02100.56980,E,0.017,,150619,,,A*6C
$GNVTG,,T,,M,0.017,N,0.032,K,A*3A
$GPGSV,3,3,11,27,80,238,51,30,04,322,22,32,06,151,25*48
$GLGSV,3,1,10,66,24,031,34,67,58,091,48,68,31,167,31,73,20,268,33*69
$GLGSV,3,2,10,74,25,316,37,75,04,005,21,81,04,108,,82,51,092,49*6D
$GLGSV,3,3,10,83,66,329,36,84,13,296,28*6B
$GNGLL,5213.19499,N,02100.56980,E,151452.00,A,A*79
$GNGST,151452.00,21,,,,2.5,0.95,3.1*75
$GNZDA,151452.00,15,06,2019,00,00*76
µb
úEXT CORE 3.01 (db0c89)00080000ROM BASE 3.01 (107888)FWVER=HPG 1.40REFPROTVER=20.30MOD=NEO-M8P-2FIS=0xC22536 (100111)GPS;GLO;BDSQZSSØÛ$GNRMC,151453.00,A,5213.19486,N,02100.56987,E,0.040,,150619,,,A*66
$GNVTG,,T,,M,0.040,N,0.075,K,A*3B
$GNGNS,151453.00,5213.19486,N,02100.56987,E,AA,13,1.24,115.2,34.2,,*69
$GNGSA,A,3,08,20,21,27,15,10,,,,,,,1.97,1.24,1.53*1A
$GNGSA,A,3,68,83,66,82,67,74,73,,,,,,1.97,1.24,1.53*1A
$GPGSV,3,1,11,07,00,295,,08,46,300,38,10,70,138,42,15,15,040,34*79
$GPGSV,3,2,11,18,,,32,20,57,074,49,21,31,084,39,26,06,190,31*41
$GPGSV,3,3,11,27,80,238,51,30,04,322,22,32,06,151,25*48
$GLGSV,3,1,10,66,24,031,33,67,58,091,48,68,31,167,31,73,20,268,34*69
$GLGSV,3,2,10,74,25,316,38,75,04,005,21,81,04,108,,82,51,092,49*62
$GLGSV,3,3,10,83,66,329,36,84,13,296,28*6B
$GNGLL,5213.19486,N,02100.56987,E,151453.00,A,A*71
$GNGST,151453.00,13,,,,2.5,0.94,3.1*74
$GNZDA,151453.00,15,06,2019,00,00*77
$GNRMC,151454.00,A,5213.19478,N,02100.56998,E,0.009,,150619,,,A*63
$GNVTG,,T,,M,0.009,N,0.016,K,A*33
$GNGNS,151454.00,5213.19478,N,02100.56998,E,AA,13,0.86,115.4,34.2,,*6E
$GNGSA,A,3,08,20,21,27,15,10,,,,,,,1.51,0.86,1.24*19
$GNGSA,A,3,68,83,66,82,67,74,73,,,,,,1.51,0.86,1.24*19
$GPGSV,3,1,11,07,00,295,,08,46,300,39,10,70,138,42,15,15,040,34*78
$GPGSV,3,2,11,18,,,32,20,57,074,49,21,31,084,38,26,06,190,30*41
$GPGSV,3,3,11,27,80,238,51,30,04,322,22,32,06,151,25*48
$GLGSV,3,1,10,66,24,031,33,67,58,091,48,68,31,167,30,73,20,268,34*68
$GLGSV,3,2,10,74,25,316,37,75,04,005,21,81,04,108,,82,51,092,49*6D
$GLGSV,3,3,10,83,66,329,35,84,13,296,28*68
$GNGLL,5213.19478,N,02100.56998,E,151454.00,A,A*79
$GNGST,151454.00,21,,,,2.4,0.93,3.1*74
$GNZDA,151454.00,15,06,2019,00,00*70
$GNRMC,151455.00,A,5213.19472,N,02100.57008,E,0.056,,150619,,,A*63
$GNVTG,,T,,M,0.056,N,0.105,K,A*3A
$GNGNS,151455.00,5213.19472,N,02100.57008,E,AA,13,0.86,115.5,34.2,,*65
$GNGSA,A,3,08,20,21,27,15,10,,,,,,,1.51,0.86,1.24*19
$GNGSA,A,3,68,83,66,82,67,74,73,,,,,,1.51,0.86,1.24*19
$GPGSV,3,1,11,07,00,295,,08,46,300,39,10,70,137,42,15,15,040,34*77
$GPGSV,3,2,11,18,,,32,20,57,074,49,21,31,084,38,26,06,190,*42
$GPGSV,3,3,11,27,80,238,51,30,04,322,22,32,06,151,24*49
$GLGSV,3,1,10,66,24,031,34,67,58,091,48,68,31,167,29,73,20,268,33*60
$GLGSV,3,2,10,74,25,316,37,75,04,005,21,81,04,108,,82,51,092,49*6D
$GLGSV,3,3,10,83,66,329,36,84,13,296,28*6B
$GNGLL,5213.19472,N,02100.57008,E,151455.00,A,A*73
$GNGST,151455.00,20,,,,2.4,0.92,3.1*75
$GNZDA,151455.00,15,06,2019,00,00*71
$GNRMC,151456.00,A,5213.19462,N,02100.57015,E,0.036,,150619,,,A*6B
$GNVTG,,T,,M,0.036,N,0.067,K,A*39
$GNGNS,151456.00,5213.19462,N,02100.57015,E,AA,13,1.24,115.6,34.2,,*61
$GNGSA,A,3,08,20,21,27,15,10,,,,,,,1.97,1.24,1.53*1A
$GNGSA,A,3,68,83,66,82,67,74,73,,,,,,1.97,1.24,1.53*1A
$GPGSV,3,1,11,07,00,295,,08,46,300,39,10,70,137,42,15,15,039,35*78
$GPGSV,3,2,11,18,,,32,20,57,074,49,21,31,084,37,26,06,190,*4D
$GPGSV,3,3,11,27,80,238,51,30,04,322,22,32,06,151,24*49
$GLGSV,3,1,10,66,24,031,34,67,58,091,48,68,31,167,29,73,20,268,34*67
$GLGSV,3,2,10,74,25,316,37,75,04,005,20,81,04,108,,82,51,092,49*6C
$GLGSV,3,3,10,83,66,329,35,84,13,296,28*68
$GNGLL,5213.19462,N,02100.57015,E,151456.00,A,A*7D
$GNGST,151456.00,13,,,,2.4,0.91,3.1*75
$GNZDA,151456.00,15,06,2019,00,00*72
$GNRMC,151457.00,A,5213.19458,N,02100.57021,E,0.030,,150619,,,A*62
$GNVTG,,T,,M,0.030,N,0.055,K,A*3E
$GNGNS,151457.00,5213.19458,N,02100.57021,E,AA,13,0.86,115.8,34.2,,*69
$GNGSA,A,3,08,20,21,27,15,10,,,,,,,1.51,0.86,1.24*19
$GNGSA,A,3,68,83,66,82,67,74,73,,,,,,1.51,0.86,1.24*19
$GPGSV,3,1,11,07,00,295,,08,46,300,39,10,70,137,42,15,15,039,35*78
$GPGSV,3,2,11,18,,,32,20,57,074,49,21,31,084,37,26,06,190,*4D
$GPGSV,3,3,11,27,80,238,51,30,04,322,21,32,06,151,23*4D
$GLGSV,3,1,10,66,24,031,33,67,58,091,48,68,31,167,29,73,20,268,34*60
$GLGSV,3,2,10,74,25,316,37,75,04,005,19,81,04,108,,82,51,092,49*66
$GLGSV,3,3,10,83,66,329,35,84,13,296,29*69
$GNGLL,5213.19458,N,02100.57021,E,151457.00,A,A*72
$GNGST,151457.00,21,,,,2.4,0.91,3.1*75
$GNZDA,151457.00,15,06,2019,00,00*73
$GNRMC,151458.00,A,5213.19457,N,02100.57027,E,0.004,,150619,,,A*63
$GNVTG,,T,,M,0.004,N,0.007,K,A*3E
$GNGNS,151458.00,5213.19457,N,02100.57027,E,AA,13,0.86,116.0,34.2,,*64
$GNGSA,A,3,08,20,21,27,15,10,,,,,,,1.51,0.86,1.24*19
$GNGSA,A,3,68,83,66,82,67,74,73,,,,,,1.51,0.86,1.24*19
$GPGSV,3,2,11,18,,,33,20,57,074,49,21,31,084,37,26,06,190,*4C
$GPGSV,3,3,11,27,80,238,51,30,04,322,,32,06,151,22*4F
$GLGSV,3,1,10,66,24,031,33,67,58,091,48,68,31,167,29,73,20,268,34*60
$GLGSV,3,2,10,74,25,316,37,75,04,005,19,81,04,108,,82,51,092,49*66
$GLGSV,3,3,10,83,66,329,35,84,13,296,29*69
$GNGLL,5213.19457,N,02100.57027,E,151458.00,A,A*74
$GNGST,151458.00,20,,,,2.4,0.90,3.1*7A
$GNZDA,151458.00,15,06,2019,00,00*7C
µb
úEXT CORE 3.01 (db0c89)00080000ROM BASE 3.01 (107888)FWVER=HPG 1.40REFPROTVER=20.30MOD=NEO-M8P-2FIS=0xC22536 (100111)GPS;GLO;BDSQZSSØÛ$GNRMC,151459.00,A,5213.19452,N,02100.57030,E,0.006,,150619,,,A*63
$GNVTG,,T,,M,0.006,N,0.012,K,A*38
$GNGNS,151459.00,5213.19452,N,02100.57030,E,AA,13,1.24,116.0,34.2,,*6F
$GNGSA,A,3,08,20,21,27,15,10,,,,,,,1.97,1.24,1.52*1B
$GNGSA,A,3,68,83,66,82,67,74,73,,,,,,1.97,1.24,1.52*1B
$GPGSV,3,1,11,07,00,295,,08,46,300,39,10,70,137,43,15,15,039,35*79
$GPGSV,3,2,11,18,,,33,20,57,074,49,21,31,084,37,26,05,190,*4F
$GPGSV,3,3,11,27,80,238,51,30,04,322,,32,06,151,21*4C
$GLGSV,3,1,10,66,24,031,32,67,58,091,48,68,31,167,30,73,20,268,34*69
$GLGSV,3,2,10,74,25,316,38,75,04,005,19,81,04,108,,82,51,092,49*69
$GLGSV,3,3,10,83,66,329,35,84,13,296,29*69
$GNGLL,5213.19452,N,02100.57030,E,151459.00,A,A*76
$GNGST,151459.00,14,,,,2.4,0.89,3.1*74
$GNZDA,151459.00,15,06,2019,00,00*7D
$GNRMC,151500.00,A,5213.19454,N,02100.57036,E,0.031,,150619,,,A*6A
$GNVTG,,T,,M,0.031,N,0.058,K,A*32
$GNGNS,151500.00,5213.19454,N,02100.57036,E,AA,13,0.86,116.2,34.2,,*69
$GNGSA,A,3,08,20,21,27,15,10,,,,,,,1.51,0.86,1.24*19
$GNGSA,A,3,68,83,66,82,67,74,73,,,,,,1.51,0.86,1.24*19
$GPGSV,3,1,11,07,00,295,,08,46,300,39,10,70,137,43,15,15,039,34*78
$GPGSV,3,2,11,18,,,33,20,57,074,49,21,31,084,37,26,05,190,*4F
$GPGSV,3,3,11,27,80,236,51,30,04,322,19,32,06,151,19*41
$GLGSV,3,1,10,66,24,031,32,67,58,091,48,68,31,167,31,73,20,268,34*68
$GLGSV,3,2,10,74,25,316,38,75,04,005,20,81,04,108,,82,51,092,49*63
$GLGSV,3,3,10,83,66,329,35,84,13,296,30*61
$GNGLL,5213.19454,N,02100.57036,E,151500.00,A,A*7B
$GNGST,151500.00,21,,,,2.4,0.89,3.1*7F
$GNZDA,151500.00,15,06,2019,00,00*70
$GNRMC,151501.00,A,5213.19451,N,02100.57039,E,0.051,,150619,,,A*67
$GNVTG,,T,,M,0.051,N,0.094,K,A*34
$GNGNS,151501.00,5213.19451,N,02100.57039,E,AA,14,1.11,116.2,34.2,,*6A
$GNGSA,A,3,08,20,21,27,15,10,18,,,,,,1.73,1.11,1.32*18
$GNGSA,A,3,68,83,66,82,67,74,73,,,,,,1.73,1.11,1.32*11
$GLGSV,3,1,10,66,24,031,32,67,58,091,48,68,31,167,31,73,20,268,34*68
$GLGSV,3,2,10,74,25,316,38,75,04,005,20,81,04,108,,82,51,092,49*63
$GLGSV,3,3,10,83,66,329,34,84,13,296,30*60
$GNGLL,5213.19451,N,02100.57039,E,151501.00,A,A*70
$GNGST,151501.00,15,,,,2.3,0.88,3.1*7F
$GNZDA,151501.00,15,06,2019,00,00*71
µb
úEXT CORE 3.01 (db0c89)00080000ROM BASE 3.01 (107888)FWVER=HPG 1.40REFPROTVER=20.30MOD=NEO-M8P-2FIS=0xC22536 (100111)GPS;GLO;BDSQZSSØÛ$GNRMC,151502.00,A,5213.19456,N,02100.57044,E,0.025,,150619,,,A*6A
$GNVTG,,T,,M,0.025,N,0.047,K,A*39
$GNGNS,151502.00,5213.19456,N,02100.57044,E,AA,14,0.82,116.4,34.2,,*69
$GNGSA,A,3,08,20,21,27,15,10,18,,,,,,1.42,0.82,1.16*17
$GNGSA,A,3,68,83,66,82,67,74,73,,,,,,1.42,0.82,1.16*1E
$GPGSV,3,1,11,07,00,295,,08,46,300,40,10,70,137,43,15,15,039,34*76
$GPGSV,3,2,11,18,18,267,33,20,57,074,48,21,31,084,37,26,05,190,*74
$GPGSV,3,3,11,27,80,236,51,30,04,322,20,32,06,151,18*4A
$GLGSV,3,1,10,66,24,031,32,67,58,091,48,68,31,167,31,73,20,268,34*68
$GLGSV,3,2,10,74,25,316,38,75,04,005,21,81,04,108,,82,51,092,49*62
$GLGSV,3,3,10,83,66,329,34,84,13,296,30*60
$GNGLL,5213.19456,N,02100.57044,E,151502.00,A,A*7E
$GNGST,151502.00,21,,,,2.3,0.87,3.1*74
$GNZDA,151502.00,15,06,2019,00,00*72
$GNRMC,151503.00,A,5213.19457,N,02100.57049,E,0.040,,150619,,,A*64
$GNVTG,,T,,M,0.040,N,0.075,K,A*3B
$GNGNS,151503.00,5213.19457,N,02100.57049,E,AA,14,1.11,116.5,34.2,,*6E
$GNGSA,A,3,08,20,21,27,15,10,18,,,,,,1.73,1.11,1.32*18
$GNGSA,A,3,68,83,66,82,67,74,73,,,,,,1.73,1.11,1.32*11
$GPGSV,3,1,11,07,00,295,,08,46,300,40,10,70,137,42,15,15,039,34*77
$GPGSV,3,2,11,18,18,267,33,20,57,074,48,21,31,084,37,26,05,190,*74
$GPGSV,3,3,11,27,80,236,51,30,04,322,20,32,06,151,16*44
$GLGSV,3,1,10,66,24,031,32,67,58,091,48,68,31,167,31,73,20,268,34*68
$GLGSV,3,2,10,74,25,316,38,75,04,005,21,81,04,108,,82,51,092,49*62
$GLGSV,3,3,10,83,66,329,34,84,13,296,30*60
$GNGLL,5213.19457,N,02100.57049,E,151503.00,A,A*73
$GNGST,151503.00,15,,,,2.3,0.86,3.1*73
$GNZDA,151503.00,15,06,2019,00,00*73
$GNRMC,151504.00,A,5213.19465,N,02100.57053,E,0.013,,150619,,,A*6F
$GNVTG,,T,,M,0.013,N,0.025,K,A*38
$GNGNS,151504.00,5213.19465,N,02100.57053,E,AA,14,0.82,116.8,34.2,,*65
$GNGSA,A,3,08,20,21,27,15,10,18,,,,,,1.42,0.82,1.16*17
$GNGSA,A,3,68,83,66,82,67,74,73,,,,,,1.42,0.82,1.16*1E
$GPGSV,3,1,11,07,00,295,,08,46,300,40,10,70,137,42,15,15,039,33*70
$GPGSV,3,2,11,18,18,267,34,20,57,074,48,21,31,084,36,26,05,190,*72
$GPGSV,3,3,11,27,80,236,51,30,04,322,20,32,06,151,13*41
$GLGSV,3,1,10,66,24,031,32,67,58,091,48,68,31,167,31,73,20,268,35*69
$GLGSV,3,2,10,74,25,316,37,75,04,005,21,81,04,108,,82,51,092,49*6D
$GLGSV,3,3,10,83,66,329,34,84,13,296,30*60
$GNGLL,5213.19465,N,02100.57053,E,151504.00,A,A*7E
$GNGST,151504.00,21,,,,2.3,0.85,3.0*71
µb
úEXT CORE 3.01 (db0c89)00080000ROM BASE 3.01 (107888)FWVER=HPG 1.40REFPROTVER=20.30MOD=NEO-M8P-2FIS=0xC22536 (100111)GPS;GLO;BDSQZSSØÛ$GNRMC,151505.00,A,5213.19466,N,02100.57057,E,0.037,,150619,,,A*6F
$GNVTG,,T,,M,0.037,N,0.068,K,A*37
$GNGNS,151505.00,5213.19466,N,02100.57057,E,AA,14,1.11,116.9,34.2,,*69
$GNGSA,A,3,08,20,21,27,15,10,18,,,,,,1.73,1.11,1.32*18
$GNGSA,A,3,68,83,66,82,67,74,73,,,,,,1.73,1.11,1.32*11
$GPGSV,3,1,11,07,00,295,,08,46,300,41,10,70,137,42,15,15,039,34*76
$GPGSV,3,2,11,18,18,267,34,20,57,074,48,21,31,084,36,26,05,190,*72
$GPGSV,3,3,11,27,80,236,51,30,04,322,19,32,06,151,12*4A
$GLGSV,3,1,10,66,24,031,32,67,58,091,48,68,31,167,30,73,20,268,35*68
$GLGSV,3,2,10,74,25,316,37,75,04,005,20,81,04,108,,82,51,092,49*6C
$GLGSV,3,3,10,83,66,329,34,84,13,296,29*68
$GNGLL,5213.19466,N,02100.57057,E,151505.00,A,A*78
$GNGST,151505.00,15,,,,2.3,0.84,3.0*76
$GNZDA,151505.00,15,06,2019,00,00*75
$GNRMC,151506.00,A,5213.19468,N,02100.57061,E,0.036,,150619,,,A*66
$GNVTG,,T,,M,0.036,N,0.068,K,A*36
$GNGNS,151506.00,5213.19468,N,02100.57061,E,AA,14,0.82,117.0,34.2,,*62
$GNGSA,A,3,08,20,21,27,15,10,18,,,,,,1.42,0.82,1.16*17
$GNGSA,A,3,68,83,66,82,67,74,73,,,,,,1.42,0.82,1.16*1E
$GPGSV,3,1,11,07,00,295,,08,46,300,41,10,70,137,42,15,15,039,34*76
$GPGSV,3,2,11,18,18,267,34,20,57,074,48,21,31,084,36,26,05,190,*72
$GPGSV,3,3,11,27,80,236,51,30,04,322,19,32,06,151,09*40
$GLGSV,3,1,10,66,24,031,32,67,58,091,48,68,31,167,30,73,20,268,35*68
$GLGSV,3,2,10,74,25,316,37,75,04,005,20,81,04,108,,82,51,092,49*6C
$GLGSV,3,3,10,83,66,329,34,84,13,296,29*68
$GNGLL,5213.19468,N,02100.57061,E,151506.00,A,A*70
$GNGST,151506.00,22,,,,2.3,0.84,3.0*71
$GNZDA,151506.00,15,06,2019,00,00*76
µb7$GNRMC,151507.00,A,5213.19464,N,02100.57065,E,0.032,,150619,,,A*6B
$GNVTG,,T,,M,0.032,N,0.059,K,A*30
$GNGNS,151507.00,5213.19464,N,02100.57065,E,AA,14,1.11,117.0,34.2,,*60
$GNGSA,A,3,08,20,21,27,15,10,18,,,,,,1.73,1.11,1.32*18
$GNGSA,A,3,68,83,66,82,67,74,73,,,,,,1.73,1.11,1.32*11
$GPGSV,3,1,11,07,00,295,,08,46,300,41,10,70,137,42,15,15,039,34*76
$GPGSV,3,2,11,18,18,267,34,20,57,074,48,21,31,084,36,26,05,190,*72
$GPGSV,3,3,11,27,80,236,51,30,04,322,18,32,06,151,*48
$GLGSV,3,1,10,66,24,031,31,67,58,091,48,68,31,167,31,73,20,268,35*6A
$GLGSV,3,2,10,74,25,316,37,75,04,005,20,81,04,108,,82,51,092,49*6C
$GLGSV,3,3,10,83,66,329,34,84,13,296,29*68
$GNGLL,5213.19464,N,02100.57065,E,151507.00,A,A*79
$GNGST,151507.00,15,,,,2.3,0.83,3.0*73
$GNZDA,151507.00,15,06,2019,00,00*77
$GNRMC,151508.00,A,5213.19463,N,02100.57069,E,0.020,,150619,,,A*6C
$GNVTG,,T,,M,0.020,N,0.038,K,A*34
$GNGNS,151508.00,5213.19463,N,02100.57069,E,AA,14,0.82,117.1,34.2,,*6E
